EPA Facility ID,Facility Name,Facility Address,City,State,County,Zip,Facility DUNS,Latitude,Longitude
100000024289,Trident Seafoods Corporation-Akutan Plant,73 Trident Way,Akutan,AK,Aleutians East (b),99553-0009,800503575,54.131871,-165.787091
100000079201,Great Western Chemical Company - Anchorage,800 East Ship Creek Avenue,Anchorage,AK,Anchorage (b),99501,622768281,61.222778,-149.869167
100000128792,John M. Asplund Wastewater Treatment Facility,2300 Hutson Drive,Anchorage,AK,Anchorage (b),99503,,61.196333,-150.025611
100000231466,George M. Sullivan Plant 2/2A,8900 Starview Drive,Anchorage,AK,Anchorage (b),99504,76667013,61.229614,-149.714355
100000197985,Ocean Terminals Anchorage Storage Yard,501 E 92nd Avenue,Anchorage,AK,Anchorage (b),99515,84610955,61.137778,-149.874444
100000218702,Univar Solutions Anchorage,590 East 100th Avenue,Anchorage,AK,Anchorage (b),99515,181523838,61.13000,-149.872778
100000162691,Alaska Seafood International,6689 Seafood Drive,Anchorage,AK,Anchorage (b),99518,,61.160583,-149.902722
100000219051,South Central Power Project,6075 Electron Drive,Anchorage,AK,Anchorage (b),99518,3899341,61.166667,-149.904444
100000237004,"Sysco Alaska, Inc.",6601 Change Point Drive,Anchorage,AK,Anchorage (b),99518,,61.161833,-149.904722
100000225437,"OBI Seafoods, LLC - Cordova",313 Jim Poor Avenue,Cordova,AK,Valdez-cordova (c),99574,,60.548153,-145.765700
100000221887,Copper River Seafoods - Cordova,"300 Cannery Row, PO Box 158",Cordova,AK,Valdez-cordova (c),99574,,60.553745,-145.757945
100000207705,Trident Seafoods - North Cordova,301 Jim Poor Ave,Cordova,AK,Valdez-cordova (c),99574,,60.549081,-145.764827
100000208704,Silver Bay Seafoods - Craig,"111 JT Brown Street, PO Box 808",Craig,AK,Prince Of Wales-outer Ketchika,99921-0808,,55.488070,-133.140943
100000212147,Wood River,3700 Yako Road,Dillingham,AK,Dillingham (c),99576,9484908,59.068386,-158.438692
100000229326,"Aleutian Propane Sales, Inc.","156 Biorka Dr., P.O. Box 920046",Dutch Harbor,AK,Aleutians West (c),99692,829182484,53.2253,-166.3
100000054718,"UniSea, Inc.",88 Salmon Way,Dutch Harbor,AK,Aleutians West (c),99692,69572279,53.881513,-166.551415
100000152201,"Westward Seafoods, Inc.",Mile 1 Captain's Bay Road,Dutch Harbor,AK,Aleutians West (c),99692,,53.858611,-166.552847
100000046407,"Alaska's Best Seafood, LLC","202 Cannery Lane, P.O. Box 1150",Ekuk,AK,Dillingham (c),99576-8989,,58.816989,-158.561186
100000057779,Excursion Inlet Plant,101 Coho Way,Excursion Inlet,AK,Haines (b),99850-0090,,58.250000,-135.263000
100000090527,"Quadra Chemicals Western, Inc.-Fairbanks",4199 South Lathrop Street,Fairbanks,AK,Fairbanks North Star (b),99701,27016596,64.806111,-147.743611
100000097691,Fort Knox Mine,#1 Fort Knox Road,Fairbanks,AK,Fairbanks North Star (b),99712,,64.997222,-147.336111
100000238922,Silver Bay Seafoods - False Pass South,101 Beach Road,False Pass,AK,Aleutians East (b),99583,63362370,54.8653,-163.4120
100000241874,Silver Bay Seafoods-False Pass,100 Beach Front Rd,False Pass,AK,Aleutians East (b),99583,,54.868415,-163.408736
100000083036,Swanson River Plant,"Mile 15, Swanson River Road",Kenai,AK,Kenai Peninsula (b),99611,,60.7298,-150.8606
100000150034,Agrium Kenai Nitrogen Operations,"MILE 21 KENAI SPUR HIGHWAY, PO BOX 575",Kenai,AK,Kenai Peninsula (b),99611-0575,124032389,60.674444,-151.379167
100000142357,Marathon Kenai Refinery,"54741 Energy Way, Mile 22 Kenai Spur Highway",Kenai,AK,Kenai Peninsula (b),99611-3369,49741523,60.685248,-151.368773
100000061336,Ketchikan Chlorination Plant,1029 Fair Street,Ketchikan,AK,Ketchikan Gateway (b),99901,,55.35,-131.623333
100000035678,"EC Phillips and Son Inc., Ketchikan",1775 Tongass Ave,Ketchikan,AK,Ketchikan Gateway (b),99901,35421130,55.350000,-131.666667
100000173974,AGS Ketchikan,"980 Stedman Street, PO Box 5240",Ketchikan,AK,Ketchikan Gateway (b),99901,,55.336389,-131.631111
100000217598,Silver Bay Seafoods - Ketchikan,720 Stedman St.,Ketchikan,AK,Ketchikan Gateway (b),99901-6633,119246004,55.338084,-131.636021
100000143515,King Cove Facility,500  Cannery Row,King Cove,AK,Aleutians East (b),99612,,55.061111,-162.316667
100000171574,Cook Inlet Processing,1011 Gibson Cove Rd,Kodiak,AK,Kodiak Island (b),99615,21827910,57.778056,-152.448611
100000165849,Trident Seafoods Corporation-Pillar Mountain Plant,521 Shelikof Avenue,Kodiak,AK,Kodiak Island (b),99615,63362370,57.785850,-152.417727
100000052747,Trident Seafoods Corporation-Star of Kodiak Plant,111 W. Marine Way,Kodiak,AK,Kodiak Island (b),99615,63362370,57.786513,-152.406067
100000176132,OBI Seafoods - Kodiak,621 Shelikof St.,Kodiak,AK,Kodiak Island (b),99615,,57.785333,-152.420717
100000148592,Alaska Pacific Seafoods,627 Shelikof Ave.,Kodiak,AK,Kodiak Island (b),99615,58353525,57.784789,-152.420212
100000181304,SILVER BAY SEAFOODS - KODIAK,517 SHELIKOF STREET,KODIAK,AK,Kodiak Island (b),99615-2997,,57.786235,-152.418030
100000227275,"RED SALMON, A DIVISION OF NORTH PACIFIC SEAFOODS","MILE 1.5 ALASKA PENINSULA HIGHWAY, PO Box 10",NAKNEK,AK,Bristol Bay (b),99633,,58.737755,-156.977857
100000225151,Silver Bay Seafoods - Naknek,"622 Frontier Street, PO Box 622",Naknek,AK,Bristol Bay (b),99633,,58.743943,-156.953503
100000208802,Trident Seafoods - North Naknek,1/2 Mile Post Peninsula Highway,Naknek,AK,Bristol Bay (b),99633,,58.727486,-157.006863
100000217712,"Leader Creek Fisheries, Inc.","Mile Marker 3 AK Peninsula Highway, PO Box 449",Naknek,AK,Bristol Bay (b),99663,,58.746271,-156.946650
100000069864,"Flint Hills Resources Alaska, LLC",1100 H&H Lane,North Pole,AK,Fairbanks North Star (b),99705,143369416,64.733374,-147.333469
100000233348,Petro Star - North Pole Refinery,1200 H&H Lane,North Pole,AK,Fairbanks North Star (b),99705,,64.735467,-147.344725
100000231297,Point Thomson Production Facility,Point Thomson Unit,North Slope Borough,AK,North Slope (b),99734-9998,,70.2,-146.3
100000252718,Springer Facility,485 Outer Springer Loop,Palmer,AK,Matanuska-susitna (b),99645,,61.585247,-149.112222
100000241954,Airgas Palmer,60 Commercial Dr,Palmer,AK,Matanuska-susitna (b),99645,,61.3516,-149.0726
100000160504,PELICAN SEAFOODS,1 SALMON WAY,PELICAN,AK,Skagway-hoonah-angoon (c),99832,,58.966667,-136.225000
100000113003,OBI Seafoods - Petersburg,411 N Nordic Drive,Petersburg,AK,Wrangell-petersburg  (b),99833-1147,,56.815233,-132.958070
100000185836,"Peter Pan Seafoods - Port Moller, AK","2200 Airport Way, Port Moller - Plant",Port Moller,AK,Aleutians East (b),99571,,55.986738,-160.574511
100000244121,Northstar Production Facility,"Northstar Island, North Slope",Prudhoe Bay,AK,North Slope (b),99734,,70.483332,-148.683338
100000252683,Flow Station 1,West Dock Road,Prudhoe Bay,AK,North Slope (b),99734,,70.2574,-148.4359
100000252692,Flow Station 3,Oxbow Road,Prudhoe Bay,AK,North Slope (b),99734,,70.2544,-148.5718
100000211996,Lisburne Production Center (LPC),"Off West Dock Road, approximately, 1.2 miles south of Oxbow Road",Prudhoe Bay,AK,North Slope (b),99734,,70.286519,-148.436800
100000241801,Central Compression Plant (CCP),"Off West Dock Road, approximately, 1.6 miles north of Oxbow Road",Prudhoe Bay,AK,North Slope (b),99734,,70.3211,-148.5024
100000212003,Central Gas Facility (CGF),Off West Dock Road,Prudhoe Bay,AK,North Slope (b),99734,,70.320213,-148.520241
100000177471,Endicott Production Facility,"Endicott Island, North Slope",Prudhoe Bay,AK,North Slope (b),99734,,70.353492,-147.960319
100000024252,Trident Seafoods Corporation-Sand Point Plant,229 Main Street,Sand Point,AK,Aleutians East (b),99661,,55.335588,-160.502744
100000156724,Seward Fisheries,601 Port Avenue,Seward,AK,Kenai Peninsula (b),99664,,60.121111,-149.436389
100000218052,Silver Bay Seafoods - Sitka,"4400 Sawmill Creek Road, Suite B",Sitka,AK,Sitka (b),99835,,57.044886,-135.231403
100000182811,Sitka Sound Seafoods,329 Katlian Street,Sitka,AK,Sitka (b),99835,,57.051559,-135.342900
100000023654,Trident Seafoods Corporation - St. Paul Plant,1027 Harbor Road,St Paul,AK,Aleutians West (c),99660,,57.124338,-170.283582
100000194773,Pyramid Water Treatment Plant,1300 Pyramid Creek Road,Unalaska,AK,Aleutians West (c),99685,60037488,53.846821,-166.562988
100000013521,"Alyeska Seafoods, Inc.","551 W. Broadway, PO Box 530",Unalaska,AK,Aleutians West (c),99685-0530,9258914,53.878656,-166.540183
100000212888,Petro Star Valdez Refinery,"2.5 Mile Dayville Road, P.O. Box 3389",Valdez,AK,Valdez-cordova (c),99686,805005758,61.08276,-146.25017
100000218123,Silver Bay Seafoods - Valdez,209 S Harbor Drive,Valdez,AK,Valdez-cordova (c),99686,,61.123333,-146.345833
100000252709,Parks and Vines Facility,6090 West Parks Highway,Wasilla,AK,Matanuska-susitna (b),99654,,61.580090,-149.604432
100000209179,Trident Seafoods Corporation-Wrangell Plant,641 Shakes Street,Wrangell,AK,Wrangell-petersburg  (b),99929,63362370,56.467183,-132.381416
100000071174,Rembrant Foods,496 Industrial Park Road,Abbeville,AL,Henry,36310,57212854,31.555725,-085.287302
100000248591,Avanti Polar Lipids,700 Industrial Park Drive,Alabaster,AL,Shelby,35007-9105,75473496,33.252047,-86.820942
100000218007,OK Foods - Albertville Plant #2,5000 Hwy 431,Albertville,AL,Marshall,35950,,34.2532,-86.179267
100000052541,"TYSON FOODS, INC. ALBERTVILLE, AL.",6600 HWY 431 SOUTH,ALBERTVILLE,AL,Marshall,35950,139661003,34.271247,-86.195796
100000065234,Wayne Sanderson Farms - Albertville,700 McDonald Avenue,Albertville,AL,Marshall,35950,797613275,34.262033,-086.204063
100000156163,ALBERTVILLE WASTE WATER TREATMENT PLANT,901 EAST McKINNEY AVE,ALBERTVILLE,AL,Marshall,35951,,34.272222,-086.190556
100000159623,Albertville  Plant # 75154,1355 Railroad Ave,Albertville,AL,Marshall,35951,58149378,34.296177,-086.218816
100000071842,Albertville Water Plant,600 Water Plant Road,Albertville,AL,Marshall,35951,,34.363389,-086.223889
100000231796,"Emmaus Foods, LLC",661 Railroad Ave,Albertville,AL,Marshall,35951,,34.282983,-86.215028
100000166287,Enterprise Albertville LPG Terminal,505 Pine Street,Albertville,AL,Marshall,35950-2939,,34.247389,-086.192361
100000208946,Hillabee Power Plant,152 Brick Plant Road,Alexander City,AL,Tallapoosa,35010,15635220,33.001020,-85.904002
100000118366,Charles C Adams III Water Treatment Plant,291 Adams Circle,Alexander City,AL,Tallapoosa,35011,,32.905639,-85.893417
100000118419,Sugar Creek Wastewater Treatment Plant,1 Airport Drive,Alexander City,AL,Tallapoosa,35011,,32.913417,-85.957444
100000048717,The Talladega/Shelby County Water Treatment Plant,14459 Plant Road,Alpine,AL,Talladega,35014,,33.355806,-86.333028
100000072663,Luzenac America Alpine Mill,4100 Grist Mill Road,Alpine,AL,Talladega,35014,79114013,33.313889,-86.216389
100000067875,Riverside Wastewater Treatment Plant,"1/4 mile south of Preswwod Road, County Road 19",Andalusia,AL,Covington,36420,,31.305806,-86.522278
100000178942,"James A. Vann, Jr. Power Plant","Post Office Box 550, 28570 U. S. Highway 29 North",Andalusia,AL,Covington,36420,6900005,31.399670,-086.475095
100000237291,Hambone Gas Processing Plant,770 Pruet Oil Well Road,Andalusia,AL,Conecuh,36421,,31.29877,-86.75813
100000088255,Arclin USA LLC,14139 US Highway 84,Andalusia,AL,Covington,36421,9420126,31.341944,-086.524167
100000186069,Reddy Ice #326-Anniston,230 West 15th Street,Anniston,AL,Calhoun,36201,,33.663015,-085.833939
100000198243,"United Natural Foods, Inc. - Allentown",2310 Roberts Drive,Anniston,AL,Calhoun,36207,6961411,33.624444,-085.798611
100000235756,Murphy Anniston Terminal,2625 US Hwy 78 East,Anniston,AL,Calhoun,36207,24269503,33.615219,-85.776551
100000044828,ANNISTON ARMY DEPOT,7 FRANKFORD AVENUE,ANNISTON,AL,Calhoun,36201-4199,,33.624000,-085.968000
100000129844,Paul B. Krebs Water Treatment Plant,1326 Thomas Burkhart Drive,Anniston,AL,Calhoun,36201-7667,,33.603250,-085.925806
100000104157,ARICHEM LLC," 187 Sloss Industries Road, Highway 51",Ariton,AL,Dale,36311,789801078,31.591444,-085.718972
100000186951,"Koch Foods-Ashland, AL",515 Tyson RD.,Ashland,AL,Clay,36251,,33.284953,-085.819711
100000049173,Steelcase Incorporated,214 Durham Drive,Athens,AL,Limestone,35611,17276338,34.766944,-86.975
100000051926,Pilgrim's Pride - Athens AL Processing Plant,1003 E. Pryor Street,Athens,AL,Limestone,35611,102078078,34.806256,-086.957711
100000202675,Reddy Ice-Athens (324),15960 Shaw Road,Athens,AL,Limestone,35611,,34.791331,-087.123156
100000078738,Flare-Butler Street Gas Plant,9638 Butler Street,Atmore,AL,Escambia,36502,188018071,31.241278,-087.429750
100000211852,Atmore Gas Plant,"SW from intersection Hauss & Ross, Hauss Nursery Road",Atmore,AL,Escambia,36502,,31.17178,-87.43725
100000084339,Big Escambia Creek Gas Plant,3888 Sardis Church Rd.,Atmore,AL,Escambia,36502,,31.070575,-087.360933
100000162717,"Lampton-Love, Inc. - Ivalee",175 Ivalee Cutoff Road,Attalla,AL,Etowah,35954,,34.035278,-086.146389
100000052836,"Giant Resource Recovery-Attalla, Inc.",1229 Valley Drive,Attalla,AL,Etowah,35954,,34.083333,-086.024444
100000111149,Lineage Logistics  - Attalla,209 Industrial Boulevard,Attalla,AL,Etowah,35954-3363,41244153,33.999470,-086.117470
100000115074,H.C. Morgan Pollution Control Facility,616 Sandhill Road,Auburn,AL,Lee,36830,,32.536667,-085.508333
100000115001,Northside Pollution Control Facility,Richland Road,Auburn,AL,Lee,36830,,32.4099,-085.324019
100000008751,James E. Estes Water Treatment facility,1385 Binford Dr,Auburn,AL,Lee,36832,607371424,32.581110,-085.466111
100000033493,Acordis Cellulosic Fibers Inc.,U.S. Highway 43 North,Axis,AL,Mobile,36505,8150617,30.958889,-88.021111
100000177998,"AMVAC Chemical Corporation, Axis Plant",12650 Hwy. 43 North,Axis,AL,Mobile,36505,,30.951667,-088.018056
100000036472,U. S. Amines - Bucks Plant,14086 Highway 43 North,Axis,AL,Mobile,36505,125624705,30.985223,-088.026254
100000219444,"PMC Organometallix, Inc.",13755-B Hwy 43 N,Axis,AL,Mobile,36505-0099,,30.979167,-088.028833
100000128541,FMC Mobile Site,12650 Highway 43,Axis,AL,Mobile,36505-0525,93179315,30.954444,-88.018889
100000144015,LeMoyne Site,13440 Highway 43 North,Axis,AL,Mobile,36505-4315,8161176,30.968357,-88.026798
100000065261,Arkema Inc. - Mobile Facility,13755 Highway 43 North,Axis,AL,Mobile,36505-4319,2290773,30.979167,-088.028833
100000197609,"Equity Group - Eufaula Division, LLC, Further Proc",57 Melvin Clark Road,Baker Hill,AL,Barbour,36027,,31.806750,-085.322280
100000187488,"Equity Group - Eufaula Division, LLC",57 Melvin Clark Road,Baker Hill,AL,Barbour,36027,,31.806132,-085.319309
100000022487,The Upper Bear Creek Water Filter Plant,County Hwy 62,Bear Creek,AL,Marion,35543,,34.268340,-087.697475
100000066019,Sandel Glass Company,541 Belview Street,Bessemer,AL,Jefferson,35020,,33.371389,-86.970556
100000209776,"Airgas USA, LLC - Bessemer","2610 18th Ave, North",Bessemer,AL,Jefferson,35020,,33.421832,-86.964871
100000187219,Piggly Wiggly Alabama Distributing Company,2400 J. Terrell Wooten Drive,Bessemer,AL,Jefferson,35020,,33.438332,-86.962878
100000008706,Harcros Chemicals Inc. - Bessemer,1496 Highway 150,Bessemer,AL,Jefferson,35022,,33.37401,-086.92048
100000183776,Warrior River Water Filter Plant,523 Belcher Ferry Road,Bessemer,AL,Jefferson,35023,,33.528130,-087.182080
100000177104,Bessemer Water Filtration Facility,250 Link Road,Bessemer,AL,Jefferson,35023,,33.515907,-087.122200
100000055423,Valley Creek Wastewater Treatment Plant,3923 Clearwater Drive,Bessemer,AL,Jefferson,35023-3751,,33.392722,-087.006917
100000161157,SYNERGY GAS,9699 15TH ST. RD.,BESSEMER,AL,Jefferson,35023-5599,,33.398333,87.0225
100000181876,Central Alabama Generating Station,3305 County Road 26,Billingsley,AL,Autauga,36006,,32.649820,-086.738810
100000177168,Tenaska Lindsay Hill Generating Station,3405 County Road 26,Billingsley,AL,Autauga,36006,111438003,32.653210,-086.738940
100000159589,"Americold, Birmingham - Plant #75129",600 W. 25th Ave.,Birmingham,AL,Jefferson,35204,58149378,33.534212,-086.848374
100000188361,Western International Gas -  Birmingham,13 Sayreton Dr.,Birmingham,AL,Jefferson,35207,,33.562209,-086.840692
100000216232,Buffalo Rock Co,111 Oxmoor Road,Birmingham,AL,Jefferson,35209,,33.457934,-086.835573
100000136863,"DFA Dairy Brands Ice Cream, LLC dba Mayfield Ice C",126 Barber Court,Birmingham,AL,Jefferson,35209,,33.458736,-086.836824
100000186425,Wood Fruitticher Grocery Co.,2900 Alton Road,Birmingham,AL,Jefferson,35210,,33.586806,-086.654278
100000246165,Circle K Terminal Alabama,2529 28th St SW,Birmingham,AL,Jefferson,35211,,33.458024,-86.876982
100000031397,AFH Logistics Services,400 Industrial Drive,Birmingham,AL,Jefferson,35211,,33.441333,-086.855222
100000233268,"Sunoco, LLC ",2700 Ishkooda Wenonah Road,Birmingham,AL,Jefferson,35211,181841792,33.449350,-86.877961
100000032001,Western Filter Plant,1400 Bankhead Highway,Birmingham,AL,Jefferson,35214,,33.536241,-86.861874
100000032056,Chemical Plant,213 11th Street,Birmingham,AL,Jefferson,35215,,33.605,-86.757222
100000025563,Shades Mountain Filter Plant,2990 Shades Crest Road,Birmingham,AL,Jefferson,35216,,33.467500,-086.758056
100000032261,Putnam Filter Plant,4400 Inglenook lane,Birmingham,AL,Jefferson,35217,,33.571916,-86.766630
100000059795,Bermco Aluminum,616 North 33rd Place,Birmingham,AL,Jefferson,35222,31502313,33.529833,-086.790183
100000067438,Industrial Chemicals Inc.,1125 Roberts Industrial Drive,Birmingham,AL,Jefferson,35208-1224,50978329,33.517778,-086.870000
100000169934,"Ventura Foods, LLC - Birmingham",3900 Vanderbilt Road,Birmingham,AL,Jefferson,35217-4159,956044879,33.560667,-086.783639
100000028837,Village Creek Water Reclamation Facility,1440 Pleasant Hill Road,Birmingham,AL,Jefferson,35224-1492,,33.526126,-086.891283
100000055815,Cahaba River Wastewater Treatment Plant,3900 Veona Daniels Drive,Birmingham,AL,Jefferson,35244-1230,,33.372667,-086.784806
100000054683,"TYSON FOODS, INC. BLOUNTSVILLE, AL.",67240 Main Street,BLOUNTSVILLE,AL,Blount,35031,78967197,34.055778,-086.578974
100000145425,Slab Creek Wastewater Treatment Plant,1124 College Avenue,Boaz,AL,Marshall,35957-0498,,34.183583,-86.183472
100000094159,Pilgrim's Pride - Boaz Poultry Processing Plant,"Gold Kist Street, PO Box 747",Boaz,AL,Marshall,35957-0747,47162524,34.200778,-086.181847
100000032332,Sipsey Intake Station,County Road 95,Bremen,AL,Cullman,35033,,33.903333,-86.810556
100000218356,Dogwood Oaks,21680 hwy 41,Brewton,AL,Escambia,36426,,31.174444,-87.115833
100000050375,Georgia-Pacific Brewton LLC,32224 US Highway 31,Brewton,AL,Escambia,36426,39574116,31.077222,-087.112222
100000184294,Walmart Distribution Center #7019,1005 Sara G. Lott Blvd.,Brundidge,AL,Pike,36010,51957769,31.718567,-085.837056
100000071334,Syngenta Crop Protection - Cold Creek Plant,13500 Hwy 43 North,Bucks,AL,Mobile,36512-0032,95688875,30.974167,-088.021944
100000169122,Barry Steam Electric Generating Plant,15300 Highway 43 North,Bucks,AL,Mobile,36512-0070,,31.007779,-088.008284
100000050776,SABIC Innovative Plastics - Burkville,1 Plastics Drive,Burkville,AL,Lowndes,36752,186382941,32.309600,-086.521700
100000184971,Sysco Central Alabama,1000 Sysco Drive,Calera,AL,Shelby,35040,35612345,33.152444,-086.756250
100000214537,"Outokumpu Stainless USA, LLC",1 Steel Drive,Calvert,AL,Mobile,36513,808410349,31.160065,-87.985473
100000192392,Castleberry Gas Processing Plant,1132 Benefield Road,Castleberry,AL,Conecuh,36432,122994945,31.295556,-086.886667
100000143276,Glen Williamson Filtration Plant,880 County Road 79,Centre,AL,Cherokee,35960,,34.195556,-85.692778
100000114949,American Midstream - Chatom Gas Plant,3204 Hwy. 56,Chatom,AL,Washington,36518-1119,,31.463330,-088.400000
100000099877,Cherokee Nitrogen,1080 Industrial Drive,Cherokee,AL,Colbert,35616-0250,57203135,34.805000,-087.936944
100000153638,Chunchula Gas Plant,12303 Roberts Road,Chunchula,AL,Mobile,36521-3447,133405811,30.945833,-088.167139
100000163271,"Delta Distributors, Inc.",17550 Industrial Park,Citronell,AL,Mobile,36622,117432922,31.040278,-88.197417
100000149314,"Technical Propellants, Inc.-Claiborne, AL Plant",378 Landegger Highway,Claiborne,AL,Monroe,36470-0007,11045721,31.541667,-087.509444
100000232367,Merchants Foodservice,2450 Big M Blvd,Clanton,AL,Chilton,35046,876636077,32.814580,-86.583820
100000007182,Yellowhammer Plant,13700 Daupen Island Parkway,Coden,AL,Mobile,36523,730661555,30.402500,-088.130556
100000064413,Mobile Bay Gas Plant,5300 B Highway 188,Coden,AL,Mobile,36523,,30.389528,-088.172944
100000131234,Williams Mobile Bay Gas Plant,6000 Rock Road,Coden,AL,Mobile,36523,879847010,30.400556,-088.177222
100000222074,"JCG Foods of Alabama, LLC",764 George Cagle Drive,Collinsville,AL,Dekalb,35961,,34.294823,-85.881826
100000124304,"WESTROCK COATED BOARD, LLC",145 MEAD ROAD HIGHWAY 165 SOUTH,COTTONTON,AL,Russell,36851,602415465,32.175000,-085.030833
100000046915,International Paper - Courtland Mill,16504 County Road 150,Courtland,AL,Lawrence,35618,51574937,34.734167,-087.310278
100000215901,"New Dairy Alabama, LLC",5014 E. US Highway 84,Cowarts,AL,Houston,36321-4305,117604550,31.193539,-85.321018
100000058643,Hatters Pond Gas Plant,1340 Radcliff Road,Creola,AL,Mobile,36525-4818,42064568,30.892609,-88.067471
100000103899,Cullman Wastewater Treatment Plant,Welti Road,Cullman,AL,Cullman,35055,770225,34.165278,-86.811389
100000122315,"Golden Rod Broilers, Inc.",2357 County Rd. 719,Cullman,AL,Cullman,35056,,34.154167,-086.771944
100000074359,Cullman Water Treatment Plant,US Highway 278 East,Cullman,AL,Cullman,35055-0278,,34.199167,-086.810833
100000177453,"Solvay Fluoropolymers, Inc",1101 State Docks Road,Decatur,AL,Morgan,35601,147754084,34.634722,-87.038611
100000182358,Morgan Energy Center LLC,1410 Red Hat Road,Decatur,AL,Morgan,35601,10115603,34.639167,-087.064167
100000050794,Decatur Utilities Dry Creek Wastewater Plant,902 Wilson Street NW,Decatur,AL,Morgan,35601,120323696,34.622758,-86.998085
100000055049,Decatur Utilities Water Plant,1900 Market Street NE,Decatur,AL,Morgan,35601,120323696,34.602631,-086.961504
100000148404,Indorama Ventures Xylenes & PTA LLC,1401 Finley Island Road,Decatur,AL,Morgan,35601,80210887,34.643006,-87.053185
100000178265,"Decatur Energy Center, LLC",2024 Highway 20 West,Decatur,AL,Morgan,35601,,34.629052,-087.021736
100000099779,"Daikin America, Inc. ",905 State Docks Road,Decatur,AL,Morgan,35601,800020604,34.630486,-087.039444
100000238851,Air Products and Chemicals Decatur Terminal,"75 Ipsco Street, NW",Decatur,AL,Morgan,35601,,34.608511,-87.0372
100000064761,Wayne Sanderson Farms-Decatur Prepared Foods-East,100 Plugs Drive,Decatur,AL,Morgan,35601,797613275,34.608889,-087.046944
100000063094,Wayne-Sanderson Farms - Decatur Fresh Processing,254 Ipsco Street,Decatur,AL,Morgan,35601,797613275,34.607828,-087.042784
100000037774,Linde - Decatur ,"900 Linde Lane, Hwy 20",Decatur,AL,Morgan,35601,197154586,34.621611,-087.011667
100000194201,"Toray Composite Materials (America), Inc.",2030 Alabama Highway 20 West,Decatur,AL,Morgan,35601,81508458,34.628125,-87.025317
100000193364,Wayne Sanderson Farms-Decatur Prepared Foods-West ,112 Plugs Road,Decatur,AL,Morgan,35601,797613275,34.612227,-087.048775
100000148388,Hexcel Corporation,3300 Mallard Fox Dr.,Decatur,AL,Morgan,35601,948102835,34.655833,-087.07111
100000088184,3M Chemical Operations' Decatur facility,1400 State Docks Road,Decatur,AL,Morgan,35601-8807,119033494,34.641667,-87.038611
100000081092,Ascend - Decatur Plant,1050 Chemstrand Avenue,Decatur,AL,Morgan,35601-8900,830235474,34.633889,-087.024444
100000064235,Momentive Specialty Chemicals Inc,1700 Lock and Dam,Demopolis,AL,Marengo,36732,1338797,32.512337,-087.865050
100000131635,Foster Farms Demopolis Corn Dog Plant,232 Buddy Griffith Drive,Demopolis,AL,Marengo,36732,,32.478702,-87.833246
100000079461,Demopolis Mill,28270 US Highway 80,Demopolis,AL,Marengo,36732-5121,,32.451944,-087.977778
100000052435,"Tri-State Plant Food, Inc.",1615 East Burdeshaw Street,Dolthan,AL,Houston,36303-1745,150579910,31.228917,-085.372750
100000118972,"Ansell Healthcare Products, Inc. - Dothan Plant",1500 Industrial Road,Dothan,AL,Houston,36303,4191920,31.258611,-85.4
100000059982,"London International Group, LLC-Dothan",2926 Clolumbia Highway,Dothan,AL,Houston,36303,174329243,31.219167,-85.346111
100000105101,Dothan Utilities Little Choctawhatchee WWTP,"412 Clearwater Drive, P. O. Box 2128",Dothan,AL,Houston,36303,,31.250000,-085.500000
100000203763,"Airgas USA, LLC - Dothan",498 Ross Clark Cirlce,Dothan,AL,Houston,36303,,31.240310,-085.366990
100000238744,Lineage Logistics Dothan,2318 East Burdeshaw,Dothan,AL,Houston,36303,,31.225458,-85.361157
100000104433,"Wayne-Sanderson Farms, Dothan, Alabama",808 Ross Clark Circle,Dothan,AL,Houston,36303,797613275,31.227778,-085.362778
100000241311,Dothan Utilities Chlorine Building,563 Clearwater Drive,Dothan,AL,Dale,36303,,31.251316,-85.505663
100000240562,Dothan Warehouse Freezer Storage,3570 Westgate Parkway,Dothan,AL,Houston,36303,30536663,31.270691,-85.406258
100000107136,Dothan Utilities Water/Electric Complex,200 Kilgore Drive,Dothan,AL,Houston,36301-4920,,31.188611,-085.424167
100000104674,Dothan Utilities Beaver Creek WWTP,"336 Narcisse Drive, P. O. Box 2128",Dothan,AL,Houston,36302-2128,,31.216667,-085.450000
100000105824,Dothan Utilities Omussee Creek WWTP,"457 Jerry Drive, P. O. Box 2128",Dothan,AL,Houston,36302-2128,,31.26258,-085.32973
100000064002,Industrial Chemicals Inc.,609 Rogers Road,Dothan,AL,Houston,36303-5701,50978329,31.254722,-085.406111
100000235248,Kronospan LLC,1 Kronospan Way,Eastaboga,AL,Calhoun,36260,80116781,33.610823,-85.974524
100000006799,Central Elmore Water and Sewer Authority,65 Lake Point Road,Eclectic,AL,Elmore,36024,1812494,32.698333,-086.054444
100000156966,Limestone County Water & Sewer Authority,17762 Lott Rd,Elkmont,AL,Limestone,35620,868600560,34.976917,87.003361
100000237996,Athens Water Treatment Plant,15575 Section Line Road,Elkmont,AL,Limestone,35620,26600134,34.880465,-87.043093
100000142534,Pilgrim's Pride - Enterprise Poultry Processing,4693 County Road 636,Enterprise,AL,Coffee,36330,98849409,31.255869,-085.960183
100000059973,"London International Group, LLC-Eufaula",1600 State Docks Road,Eufaula,AL,Barbour,36027,174329243,31.848333,-85.151667
100000074224,"Tessenderlo Kerley, Inc. - Eufaula Facility",1431 State Docks Road,Eufaula,AL,Barbour,36027,826675266,31.852757,-085.151408
100000226365,South Fresh Processors,"1231 US Hwy 43 South, PO Box 191",Eutaw,AL,Greene,35462,,32.8176989,-87.8851081
100000072734,"Flare, LLC - County Line Gas Plant",County Line Road,Evergreen,AL,Conecuh,36401,188018071,31.31725,-87.35975
100000211656,North Beach ,13880 County Rd 42,Evergreen,AL,Conecuh,36401,,31.315,-86.783
100000247761,"Showa Best Glove, Inc",931 2nd Ave SE,Fayette,AL,Fayette,35555,807930412,33.676842,-87.829211
100000084222,"Exxon Company, U.S.A. St. Regis Loading Facility",Hollywood Street,Flomaton,AL,Escambia,36441,133247726,31.009722,-87.211944
100000231439,"Applied Chemical Technology,Inc",4350 Helton Dr.,Florence,AL,Lauderdale,35630,,34.872443,-087.660506
100000125893,"Agrium Florence, AL",#1 COMMERCE STREET,FLORENCE,AL,Lauderdale,35630,808957229,34.799004,-087.655444
100000006334,Wilson Lake Water Treatment Plant,601 South Cox Creek Parkway,Florence,AL,Lauderdale,35630,,34.812778,-087.626389
100000006414,Cypress Creek Water Treatment Plant,704 Paxton Avenue,Florence,AL,Lauderdale,35630,,34.826667,-087.700556
100000006352,Cypress Creek Wastewater Treatment Plant,201 Seven Mile Island Rd.,Florence,AL,Lauderdale,35630,,34.784167,-087.701389
100000081877,"Gemstone Ventures Florence, LLC",700 South Wood Avenue,Florence,AL,Lauderdale,35630,62226893,34.795819,-087.669035
100000158189,Oakland Gin Company,24050 County Road 14,Florence,AL,Lauderdale,35633,,34.841639,-87.798778
100000144934,John B. Rains Filter Plant,"153 20th Street, Northeast",Fort Payne,AL,Dekalb,35967,,34.518056,-85.673611
100000161086,"Sara Lee Bakery Group-(Fort Payne, Alabama)",4811 Gault Avenue North,Fort Payne,AL,Dekalb,35967,55796973,34.492667,-085.674389
100000157572,Fort Payne Wastewater Treatment Plant,2200 Industrial Blvd. SW,Fort Payne,AL,Dekalb,35967,81387912,34.431638,-085.767722
100000123895,U.S. Army Aviation Center and Fort Rucker,"CDR USAAVNC ATTN: ATZQ-DEL, BLDG 1121, Quartermaster Road",Fort Rucker,AL,Dale,36362-5000,,31.337222,-085.733889
100000073699,Flare-Wildfork Gas Plant,20 Lee Street,Frisco City,AL,Monroe,36445,,31.418944,-087.402278
100000170076,Lancaster Gas Plant,4818 Perdue Hill Rd,Frisco City,AL,Monroe,36445-3220,874333651,31.457222,-87.409722
100000170067,Lufkin Gas Plant,4818 Perdue Hill Rd.,Frisco City,AL,Monroe,36445-3220,,31.458056,-087.422222
100000158009,Five Mile Creek Wastewater Treatment Plant,3410 Happy Hollow Lane,Fultondale,AL,Jefferson,35068-2019,,33.595694,-086.865528
100000035375,6th Street Pump Station,1013 South 6th Street,Gadsden,AL,Etowah,35901,,33.998550,-086.010973
100000036169,C.B. Collier Jr. Water Treatment Plant,625 Albert Rains Boulevard,Gadsden,AL,Etowah,35901,,34.022166,-085.987881
100000033894,West River Wastewater Treatment Plant,2000 Wills Creek Drive,Gadsden,AL,Etowah,35902,,33.990232,-086.035837
100000035482,East River Wastewater Treatment Plant,525 Paden Road,Gadsden,AL,Etowah,35903,,33.967704,-085.973340
100000050044,Koch Foods - Gadsden,501 Paden Road,Gadsden,AL,Etowah,35903,,33.97005,-085.9724
100000235373,Fehrer Automotive - Gadsden,4330 Brooke Ave,Gadsden,AL,Etowah,35904,833239234,33.996881,-86.075687
100000235783,"Centennial Energy, LLC - Gadsden Transloading",3201 Forrest Ave,Gadsden,AL,Etowah,35904,,34.019270,-86.056008
100000159641,AmeriCold Gadsden Plant # 5148,215 E. Air Depot Rd.,Gadsden,AL,Etowah,35905,58149378,33.965264,-085.938522
100000207607,Keystone Foods LLC Alabama Division,2281 Steele Station Road,Gadsden,AL,Etowah,35906,,33.961998,-86.078922
100000247798,Lineage Logistics - Gadsden,2283 Steele Station Rd.,Gadsden,AL,Etowah,35906,,33.962639,-86.080450
100000165581,Demopolis Propane Terminal,29 County Rd 2,Gallion,AL,Marengo,36742,956442099,32.508889,-087.764167
100000165634,Dixie Pipeline Demopolis Terminal,15270 U. S. Highway 80,Gallion,AL,Marengo,36742,,32.5069,-087.7695
100000195479,"Sysco Gulf Coast, Inc.",2001 W. Magnolia Ave.,Geneva,AL,Geneva,36340,,31.053350,-085.912224
100000104059,Geneva Wastewater Treatment Plant,633 Mulkey Street,Geneva,AL,Geneva,36344,,31.03925,-85.888944
100000122896,Womack Hill Gas Plant,600 Chestnut Road,Gilbertown,AL,Choctaw,36908-2333,,31.844020,-088.184855
100000189039,Gordo Gas Plant,5975 County Road 57,Gordo,AL,Pickens,35466,,33.382417,-087.921722
100000189734,"Grand Bay, AL",5745 Dawes Road,Grand Bay,AL,Mobile,36541,,30.570948,-088.332352
100000211638,North Marshall Water Treatment Plant,266 Word Mountain Road,Grant,AL,Marshall,35747,785268897,34.273385,-86.163989
100000141688,Eastlake Wastewater Plant,3100 Lake Guntersville State Parkwa,Guntersville,AL,Marshall,35976,,34.347167,-86.283528
100000146291,Monsanto Water Treatment Plant,2457 Monsanto Road,Guntersville,AL,Marshall,35976,,34.426389,-086.217222
100000101882,Arab Water Treatment Plant,66 Water Works Road,Guntersville,AL,Marshall,35976,,34.365833,-086.350639
100000141312,Sunset Water Treatment Facility,2700 Willow Beach Road,Guntersville,AL,Marshall,35976,,34.334000,-086.329900
100000103693,Pilgrim's Pride - Guntersville Processing Plant,"3500 Lake Guntersville Park Dr., P.O. Box 400",Guntersville,AL,Marshall,35976-1965,615250651,34.347025,-086.281319
100000072529,Hamilton Water Treatment Plant,559 Water Plant Road,Hamilton,AL,Marion,35570,97744130,34.156028,-087.950306
100000206412,AmeriGas Cullman Rail Terminal,285 County Road 607,Hanceville,AL,Cullman,35077,835406539,34.122778,-086.808611
100000059802,"Red Star Yeast Company, LLC",13211 US Highway 431 South,Headland,AL,Henry,36345,883925471,31.398611,-085.323194
100000186915,"TYSON FOODS, INC. HEFLIN, AL.",6879 HWY 9,HEFLIN,AL,Cleburne,36264,79118881,33.557778,-085.608889
100000041698,West Morgan-East Lawrence Water Treatment Plant,6505 County Road 400,Hillsboro,AL,Lawrence,35643,62905328,34.750500,-087.223389
100000245825,ESJD - Birmingham,36 Barber Ct,Homewood,AL,Jefferson,35209,,33.459492,-86.837225
100000180207,Genpak LLC - Hope Hull,7621 Bill Joseph Parkway,Hope Hull,AL,Montgomery,36043,114377919,32.263333,-86.373333
100000030824,South Parkway Water Treatment Plant,14000 South Memorial Parkway,Huntsville,AL,Madison,35803,,34.700000,-086.574167
100000154637,Aldridge Creek Wastewater Treatment Plant,13331 Memorial Parkway South,Huntsville,AL,Madison,35803,,34.588761,-086.561082
100000052417,George C. Marshall Space Flight Center,Marshall Space Flight Center,Huntsville,AL,Madison,35812,,34.661358,-86.671582
100000062068,Spring Branch Wastewater Treatment Plant,1800 Vermont Road SW,Huntsville,AL,Madison,35802-2064,,34.668475,-086.601026
100000078453,UNIVAR USA INC,1176 JORDAN ROAD,HUNTSVILLE,AL,Madison,35811-0000,102971785,34.808972,-86.498694
100000065225,Wayne-Sanderson Farms - Enterprise,1020 County Road 114,Jack,AL,Coffee,36346,86545746,31.501667,-085.901390
100000143686,Jackson Water Treatment Plant,4501 Commerce Street,Jackson,AL,Clarke,36545,,31.525556,87.927528
100000017698,"Boise White Paper, LLC",4585 Industrial Road,Jackson,AL,Clarke,36545,2993905,31.490852,-087.897860
100000158303,"Mar-Jac Poultry AL, LLC",3301 THIRD AVENUE,JASPER,AL,Walker,35501,,33.818019,-087.277192
100000067884,Jasper Wastewater Treatment Plant,4000 Plant Road,Jasper,AL,Walker,35501,114434090,33.813056,-087.268333
100000062308,Jasper Water Treatment Plant,195 Jasper Road,Jasper,AL,Walker,35504,,33.816944,-087.134167
100000044132,"P. B. & S. CHEMICAL COMPANY, INC. (39)",1702 South 4th Avenue,Lanett,AL,Chambers,36863,41167107,32.87,-85.2
100000202826,Charles R. Lowman Power Plant,"4392 Carson Road, P.O. Box 10",Leroy,AL,Washington,36548,6900005,31.492222,-087.909722
100000026438,Airgas South- Lincoln,Lomar Drive & Old Ferry Rd.,Lincoln,AL,Talladega,35096,,33.610000,-086.179167
100000046791,"Tanner Industries, Inc. - Lincoln",900 Oxford Rd.,Lincoln,AL,Talladega,35096,,33.609444,-086.179167
100000207983,Western International Gas - Lincoln,190 Lomar Road,Lincoln,AL,Talladega,35096,,33.609479,-86.178377
100000184454,"Sister Schubert's Homemade Rolls, Inc.","50 Industrial Parkway, PO Drawer 112",Luverne,AL,Crenshaw,36049,,31.734140,-086.282300
100000044105,"Brenntag Mid-South, Inc.",395 Swancott Road,Madison,AL,Madison,35756,41167107,34.598207,-086.772141
100000128471,Kurt Keene Water Treatment Plant,590 Gillespie Road,Madison,AL,Madison,35758,,34.721667,-86.760556
100000030833,Southwest Water Treatment Facility,255 Wall-Triana Highway,Madison,AL,Madison,35758,,34.56558,-086.75150
100000224241,SalonCentric Alabama Distribution Center,"6600 Jefferson Metropolitan Pkwy, Suite 160",McCalla,AL,Jefferson,35111,874332260,33.316370,-87.030938
100000252629,"JM Smucker, LLC",7351 Old Tuscaloosa Highway,McCalla,AL,Jefferson,35111,,33.29745,-87.05762
100000103906,"Linde - McIntosh, AL",1636 Industrial Road ,McIntosh,AL,Washington,36553,878932904,31.266455,-088.006981
100000100393,"Olin Corp. McIntosh, Alabama Plant",1638 Industrial Rd.,McIntosh,AL,Washington,36553-0028,8188708,31.153300,-88.000200
100000089012,BASF Corporation  -  McIntosh Plant,1379 Ciba Road,McIntosh,AL,Washington,36553-0113,1221902,31.267617,-088.000267
100000173581,Huntsman Advanced Materials - McIntosh Plant,555 Huntsman Road,McIntosh,AL,Washington,36553-0500,13995480,31.278056,-088.001667
100000184025,Seaonus Refrigerated Services - Mobile,1000 Alabama State Docks Blvd.,Mobile,AL,Mobile,36602,139431519,30.704893,-088.040480
100000107467,Clifton C. Williams Wastewater Treatment Facility,1600 Yend St,Mobile,AL,Mobile,36603,,30.660200,-088.036900
100000107519,Harry E. Myers Water Filtration Facility,1475 Hubert Pierce Rd,Mobile,AL,Mobile,36608,,30.722100,-088.260500
100000090091,International Paper - Mobile Mill,Paper Mill Road,Mobile,AL,Mobile,36610,8161861,30.744722,-88.053056
100000154664,Kimberly-Clark Tissue Company,200 Bay Bridge Road,Mobile,AL,Mobile,36610,8149858,30.741667,88.05
100000174688,Hog Bayou Energy Center,"P.O. Box 10305, 1003 Paper Mill Road, Gate B",Mobile,AL,Mobile,36610,,30.748611,-88.057222
100000013479,Harcros Chemicals Inc. - Mobile,1480 Telegraph Road,Mobile,AL,Mobile,36610,,30.75156,-088.07025
100000037113,"Sterling Specialty Chemicals, US, LLC","1 Cyanamid Road, n/a",Mobile,AL,Mobile,36610,786659222,30.748056,-088.064167
100000107396,E. Morgan Stickney Water Filtration Plant,4800 Moffett Road,Mobile,AL,Mobile,36618,,30.720600,-088.153600
100000107421,"Wright Smith, Jr. Wastewater Treatment Facility",1879 Conception Street Road,Mobile,AL,Mobile,36652,,30.718400,-088.071200
100000167865,Mobile Solvent and Supply Inc.,5750 Kushla Mcleod Road,Mobile,AL,Mobile,36663,,30.816389,-088.183056
100000078685,Industrial Chemicals Inc.,3212 Crichton Street,Mobile,AL,Mobile,36607-1411,50978329,30.708056,-088.118056
100000083642,"PVS DX, INC.",1200 JARVIS ROAD,MOBILE,AL,Mobile,36611-1000,809283539,30.746667,-088.070833
100000106805,"Occidental  Chemical Corporation, Mobile Plant",1300 Jarvis Road,Mobile,AL,Mobile,36614-1099,8163388,30.750000,-088.066670
100000029355,Americold - Mobile,2201 Perimeter Rd & Ave M,Mobile,AL,Mobile,36615-1198,,30.642633,-088.081511
100000128694,Water Works Board of the City of Monroeville,129 West Claiborne Street,Monroeville,AL,Monroe,36461,,31.526222,-87.326583
100000030414,Econchate Water Pollution Control Plant (WPCP),2501 Jackson-Ferry Road,Montgomery,AL,Montgomery,36104,,32.418954,-086.303972
100000048977,"Flowers Frozen Bakery, Inc.",140 Folmar Parkway,Montgomery,AL,Montgomery,36105,,32.265556,-086.366667
100000138246,Koch Foods of Alabama,4530 Mobile Highway,Montgomery,AL,Montgomery,36108,25189853,32.314520,-086.350522
100000112898,"DG Fresh Distribution AL, LLC",6080 Mobile Highway,Montgomery,AL,Montgomery,36108,6946172,32.293469,-86.353575
100000235774,Murphy Montgomery Terminal,420 Hunter Loop Road,Montgomery,AL,Montgomery,36108,6479236,32.353872,-86.387428
100000189716,Koch Foods of Alabama,3500 Western Blvd.,Montgomery,AL,Montgomery,36108,25189853,32.32796,-086.35513
100000108171,Genpak LLC - Montgomery,3255 Thomason Avenue,Montgomery,AL,Montgomery,36108,,32.350556,-86.354722
100000029747,Catoma Water Pollution Control Plant (WPCP),6000 Richard E. Hanan Drive,Montgomery,AL,Montgomery,36108,,32.363427,-086.445690
100000030398,Day Street Pumping Station,2350 Day Street,Montgomery,AL,Montgomery,36108,,32.370655,-086.331141
100000106431,"US Foods, Inc. - Montgomery",2850 Selma Highway 80 West,Montgomery,AL,Montgomery,36108,,32.313594,-086.360613
100000030361,C. T. Perry Water Treatment Plant,5301 Jack Drive,Montgomery,AL,Montgomery,36110,,32.438889,-086.201944
100000063799,Industrial Chemicals Inc.,2245 West Fairview Avenue,Montgomery,AL,Montgomery,36108-4122,50978329,32.350833,-086.332500
100000163743,Americold Montgomery Plant #75144,4550 Newcomb Ave.,Montgomery,AL,Montgomery,36108-5002,58149378,32.314396,-086.361973
100000152586,"Lawter International, Inc.",12982 Cracker Road,Moundville,AL,Tuscaloosa,35474,4034138,33.009722,-87.625278
100000011505,Harcros Chemcials Inc. - Muscle Shoals,300 Pepi Drive,Muscle Shoals,AL,Colbert,35662,,34.76704,-087.61854
100000080654,Wise Alloys LLC - Alabama Reclamation Plant,1009 Ford Road,Muscle Shoals,AL,Colbert,35661-1119,,34.773889,-87.594167
100000080574,Constellium Muscle Shoals,4805 Second Street,Muscle Shoals,AL,Colbert,35661-1282,,34.762389,-087.588278
100000115127,"Occidental Chemical Corp., Muscle Shoals Facility",1000 North Wilson Dam Road,Muscle Shoals,AL,Colbert,35661-1344,4019642,34.771925,-087.630058
100000247422,Ben E. Keith Foods Southeast Division,1 Ben E. Keith Way,New Brockton,AL,Coffee,36351,,31.381056,-85.948928
100000108386,Northport Water Treatment Plant,11405 Lary Lake Road,Northport,AL,Tuscaloosa,35475,,33.325278,-087.576944
100000069711,Northport Wastewater Treatment Plant,3950 3rd Street South,Northport,AL,Tuscaloosa,35476,,33.213611,-087.589722
100000030192,Saugahatchee Lake Filter Plant,3803 Saugahatchee Lake Road,Opelika,AL,Lee,36801,,32.667778,-085.438333
100000165689,Dixie Pipeline Opelika Terminal,5565 Alabama Highway 51,Opelika,AL,Lee,36801,,32.5766,-85.3704
100000241142,Golden State Foods,4801 Northpark Dr,Opelika,AL,Lee,36801,,32.714274,-85.3082641
100000168515,Walmart Distribution Center #6095,2701 Andrews Road,Opelika,AL,Lee,36801-9543,51957769,32.697222,-085.324167
100000128505,Orange Beach Water Treatment Plant,2200 Cotton Creek Drive,Orange Beach,AL,Baldwin,39542,,30.171300,-087.390000
100000127007,Tull CAllen Waste Water Treatment Plant,2795 Silverrun Road,Oxford,AL,Talladega,36203,,33.583611,-85.905833
100000132279,Choccolocco Creek Wastewater Treatment Plant,35 Friendship Road,Oxford,AL,Calhoun,36203,,33.603056,-085.826389
100000071815,Americold  - Oxford,670 Airport Road,Oxford,AL,Calhoun,36703-2718,58149378,33.591270,-085.859023
100000208777,Ozark Southside WWTP,"2872 South Alabama Highway 123, P. O. Box 1125",Ozark,AL,Dale,36361,,31.388382,-85.609618
100000178602,Gorgas Electric Generating Plant,460 Gorgas Road,Parrish,AL,Walker,35580,,33.6430,-087.1998
100000241437,NBLLC_Parrish,500 Old Baltimore Road,Parrish,AL,Walker,35580,,33.727432,-87.272226
100000119481,"THE FORD METER BOX COMPANY, INC.",815 MILES PARKWAY,PELL CITY,AL,St. Clair,35125,,33.602778,-86.263889
100000026278,"Benjamin Moore & Company, Pell City, Alabama Plant",109 Bamberg Drive,Pell City,AL,St. Clair,35125-9142,181837238,33.592312,-086.240318
100000037701,Georgia-Pacific Naheola LLC,7530 Highway 114,Pennington,AL,Choctaw,36916-9499,808215706,32.228687,-88.023810
100000033545,Alabama River Cellulose LLC,2373 Lena Landegger Highway,Perdue Hill,AL,Monroe,36470,81381568,31.581944,-087.488611
100000007002,Phenix City Water Filtration Plant,1100 32nd Street,Phenix City,AL,Russell,36867,,32.501861,-084.996889
100000231572,Alatrade Foods LLC,6 Downing Dr,Phenix City,AL,Russell,36869,,32.396779,-85.048794
100000006986,Phenix City Wastewater Treatment Plant,1600 East State Docks Road,Phenix City,AL,Russell,36869,617614599,32.431389,-084.966111
100000044506,Cherokee County Water Plant,4101 County Road 33,Piedmont,AL,Cherokee,35972,,34.018611,-085.573056
100000032289,Carson Filter Plant,6560 State Route 151,Pinson,AL,Jefferson,35126,,33.697044,-86.684061
100000181867,E.B. Harris Electric Generating Plant,600 County Road 41,Prattville,AL,Autauga,36067,,32.381222,-086.573806
100000092491,Carlos A Morris WWTP,"54 Grover Street, P.O. Box 10067",Prichard,AL,Mobile,36610,,30.786389,-088.098333
100000092543,Stanley Brooks WWTP,"End of Aldock Road, P.O. Box 10067",Prichard,AL,Mobile,36610,,30.786389,-088.098333
100000025616,Kenneth D. Byrd Intake Station,2350 K. D. Byrd Road,Quinton,AL,Walker,35130,,33.6675,-87.119444
100000118259,J. H. Miller Electric Generating Plant,4250 Porter Road,Quinton,AL,Jefferson,35130,,33.631111,-087.059444
100000115582,ISP Chemicals LLC,BLDG 5565 Industrial Road,Redstone Arsenal,AL,Madison,35898,2188894,34.630417,-086.636111
100000039193,Redstone Arsenal,AMSAM-CG,Redstone Arsenal,AL,Madison,35898-5020,,34.63,-86.64
100000169872,U.S. Army Garrison - Redstone Arsenal (WTP 3),5428 Jungerman Road,Redstone Arsenal,AL,Madison,35898-5020,,34.639556,-086.634056
100000169239,U.S. Army Garrison - Redstone Arsenal (WTP 1),8040 Shields Road,Redstone Arsenal,AL,Madison,35898-5020,,34.586833,-086.682083
100000136747,"Robertsdale, AL 142",18531 Wilters Street,Robertsdale,AL,Baldwin,36567,785525494,30.553306,-087.707750
100000039709,"Wabash Alloys, L.L.C",120 Hwy. 48,Russellville,AL,Franklin,35653,2469562,34.489972,-87.750778
100000074135,H.E. Neal III Water Filtration Plant,1440 Lake Elliott Road,Russellville,AL,Franklin,35653,,34.513556,-087.781778
100000094051,Pilgrim's Pride - Russellville Processing Plant,"2045 Highway 244, P.O. Box 1086",Russellville,AL,Franklin,35654,605548551,34.462594,-087.669550
100000149127,Vertex Refining Alabama LLC,400 Industrial Parkway Extension,Saraland,AL,Mobile,36571,118668021,30.787778,-088.058333
100000147968,The Section & Dutton Water System,3680 County Road 67,Scottsboro,AL,Jackson,35768,135038410,34.598333,-86.003056
100000143374,"Scottsboro Aluminum, LLC",1762 Goosepond Drive,Scottsboro,AL,Jackson,35769,93790277,34.596944,-86.048056
100000203843,North Sauty Creek Water Treatment Plant,5800 AL Highway 79,Scottsboro,AL,Jackson,35769,,34.600874,-086.077333
100000203852,Skinny Jones Water Filtration Plant,3001 Veterans Drive ,Scottsboro,AL,Jackson,35769,,34.649082,-085.985973
100000251283,Southside Wastewater Treatment Plant,318 Camille Street,Scottsboro,AL,Jackson,35769,,34.612612,-086.053462
100000077445,Acordis Industrial Fibers Inc.,7526 Akzo Boulevard,Scottsboro,AL,Jackson,35769-7335,783909153,34.618333,-86.085556
100000200016,Lear Corporation,6 Meadowcraft Parkway,Selma,AL,Dallas,36701,175592476,32.332122,-86.989622
100000113584,International Paper Riverdale Mill,601 County Road 78,Selma,AL,Dallas,36703,1385988,32.426722,-086.870694
100000033652,"R.L. Zeigler Company, Inc",1 Plant Street,Selma,AL,Dallas,36702-2505,41022021,32.401889,-87.006147
100000081902,Wise Alloys LLC - Sheffield Plant,501 West 20th Avenue,Sheffield,AL,Colbert,35660,,34.755,-87.708333
100000102346,Smiths Water Treatment Plant,141 Lee Road 315,Smiths,AL,Lee,36877,102074036,32.537333,-085.042444
100000177756,H. Allen Franklin Generating Plant,530 Lee County Road 330,Smiths,AL,Lee,36877,,32.606944,-085.098611
100000137087,"Real Alloy Specification, Inc.",47 Brogdon Road,Steele,AL,St. Clair,35987,963598144,33.934167,-086.198333
100000182303,TVA - Widows Creek Fossil Plant,County Road 96,Stevenson,AL,Jackson,35772-2000,1883032,34.887778,-085.752194
100000021282,LAKE HOWARD WATER TREATMENT PLANT,924 LAKE HOWARD ROAD,SYLACAUGA,AL,Talladega,35150,155614563,33.2055175,-086.195231
100000152023,J. E. HAM WWTP,610 OLD SYLACAUGA HIGHWAY,SYLACAUGA,AL,Talladega,35150,155614563,33.190543,-086.271872
100000057591,Blue Bell Creameries - Sylacauga,423 N Norton Ave,Sylacauga,AL,Talladega,35150-2009,,33.174622,-086.252828
100000236997,Woodbridge Alabama LP,5549 Endeavor Way,Tanner,AL,Limestone,35761,173702150,34.6359,-86.870227
100000135819,"Sivento, Inc.",4301 Degussa Road,Theodore,AL,Mobile,36582,25997925,30.514167,-88.140833
100000144257,"Creanova, Inc.",4301 Degussa Road,Theodore,AL,Mobile,36582,25997925,30.514167,-88.140833
100000168463,BASF Performance Co-Polymers LLC,4201A  Degussa Road,Theodore,AL,Mobile,36582,,30.526944,-88.136111
100000192864,Millard Refrigerated Services,7730 Deer River Road,Theodore,AL,Mobile,36582,41244153,30.531679,-88.103057
100000076758,High-Purity Silicon America Corporation,7800 Mitsubishi Lane,Theodore,AL,Mobile,36582,948682695,30.529361,-088.142056
100000172528,Theodore Cogeneration Plant,7910 Rangeline Road,Theodore,AL,Mobile,36582,,30.524901,-088.128995
100000230608,BASF Trilon M,"4201 Evonik Rd., Unit D",Theodore,AL,Mobile,36582,,30.5257,-88.1348
100000212584,Mobile Bay Onshore Treating Facility,6000 Deakle Road,Theodore,AL,Mobile,36582,,30.429570,-88.181880
100000135169,Evonik Mobile Facility,4201 Evonik  Road,Theodore,AL,Mobile,36582,25997925,30.5160432,-088.138150
100000199402,SKW - Quab Chemicals,"4201 Evonik Road, Unit Quab",Theodore,AL,Mobile,36582,,30.522500,-088.137778
100000252399,HWTG--Mobile,5725 I-10 Industrial Pkwy S,Theodore,AL,Mobile,36582,118488622,30.56784,-88.17453
100000151621,"Linde - Theodore, AL",4200 Evonik Road,Theodore,AL,Mobile,36582,,30.514481,-088.13455
100000207055,"Airgas USA, LLC - Theodore",5480 Hamilton Boulevard,Theodore,AL,Mobile,38582,,30.554815,-88.170833
100000121405,Ansell Protective Products - Troy Plant,110 Henderson Highway,Troy,AL,Pike,36079,603432162,31.780278,-85.988889
100000241687,Sanders Lead Company,1 Sanders Road,Troy,AL,Pike,36079,46481032,31.788862,-85.978614
100000105307,Walnut Creek WWTP,U.S 231 South,Troy,AL,Pike,36081,,31.768056,-85.918333
100000207714,Serv-Cold Acquisitions,1301 N 3 Notch Street,Troy,AL,Pike,36081,,31.822306,-085.959917
100000091633,Gold Kist Trussville Processing Plant,7200 Will Pond Road,Trussville,AL,Jefferson,35173,,33.634611,-86.573167
100000049921,"Hunt Refining Company, A Corporation",1855 Fairlawn Road,Tuscaloosa,AL,Tuscaloosa,35401,175261817,33.200300,-087.607000
100000229638,Gaylord Chemical Company Tuscaloosa,1880 Fairlawn Rd.,Tuscaloosa,AL,Tuscaloosa,35401,186353157,33.19819,-87.610796
100000133036,"Peco Foods, Inc.",3701 Reese Phifer Avenue,Tuscaloosa,AL,Tuscaloosa,35401,,33.177676,-087.560734
100000048691,Ed Love Water Treatment Plant,1125 jack Warner Pkwy.,Tuscaloosa,AL,Tuscaloosa,35404-1125,,33.225000,-087.528694
100000184588,TVA Colbert Fossil Plant,900 Colbert Steam Plant Road,Tuscumbia,AL,Colbert,35674-6906,,34.742330,-087.849900
100000226837,Tuskegee Water Treatment Plant,"2323 Macon County Rd. 8, P.O. Box 831050",Tuskegee,AL,Macon,36083,,32.471432,-85.849529
100000084008,Intermediate Pump Station Union Springs Wastewater,US Hwy 82 E,Union Springs,AL,Bullock,36089,,32.155417,-85.673444
100000065181,Wayne-Sanderson Farms - Union Springs Fresh Plant,444 Baskin Street South,Union Springs,AL,Bullock,36089,797613275,32.136702,-85.723152
100000030389,Robert A. Betts Filter Plant,7473 Lee Road 279,Valley,AL,Lee,36854,,32.680000,-085.180278
100000247583,John Soules Foods,1135 Towel Ave.,Valley,AL,Chambers,36854,,32.7784820,-85.1768553
100000032975,Calhoun County Water Filtration Plant,630 Smith Boozer Road,Wellington,AL,Calhoun,36279-5829,,33.864630,-085.883850
100000175767,Five Star Water Supply District,251 Lakeview Dr.,Wetumpka,AL,Elmore,36092,,32.590833,-086.291667
100000029113,Wilako Wastewater Treatment Plant,"P. O. Box 69, 2909 Elmore Road",Wetumpka,AL,Elmore,36092,872890454,32.522700,-086.220900
100000020648,Power Systems Development Facility,Highway 25 North,Wilsonville,AL,Shelby,35186,,33.243333,-86.469722
100000202979,Shelby County South Water Treatment Plant,7935 Highway 61,Wilsonville,AL,Shelby,35186,,33.215033,-086.502440
100000117198,E. C. Gaston Electric Generating Plant,31972 Highway 25 North,Wilsonville,AL,Shelby,35186,,33.244722,-086.457222
100000058947,Petit Jean Poultry Arkadelphia plant,125 Technology Drive,Arkadelphia,AR,Clark,71923,,34.049722,-093.096667
100000028668,"Hitco Carbon Composites, Inc.",201 Technology Drive,Arkadelphia,AR,Clark,71923,53882585,34.048889,-093.094167
100000107895,Clearwater Paper Corporation - Cypress Bend Mill,5082 Highway 4 North,Arkansas City,AR,Desha,71630,829116628,33.706440,-091.237850
100000064798,Texarkana Water Utility Millwood Water Plant,136 Little River 741,Ashdown,AR,Little River,71822,,33.642148,-094.094023
100000059296,Domtar A.W. LLC Ashdown Mill,285 Highway 71 South,Ashdown,AR,Little River,71822,114415925,33.640278,-094.113056
100000120479,Massard Wastewater Treatment Facility,1500 North 9th Street,Barling,AR,Sebastian,72923,,35.341667,-94.311944
100000200301,ozark Mountain Poultry ,"PO Box 2196, 1420 S St. Louis Street",Batesville,AR,Independence,72501,799910448,35.764922,-091.642917
100000173411,Batesville Cold Storage,3054 East Main Street,Batesville,AR,Independence,72501,840217061,35.806667,-091.608889
100000060006,"Peco Foods, Inc.",625 South Allen Street,Batesville,AR,Independence,72501,,35.764444,-091.648611
100000095782,"Ozark Mountain Poultry2 - Batesville, AR",1810 South St. Louis St.,Batesville,AR,Independence,72501,799910448,35.762376,-091.643609
100000124046,Batesville Water Treatment Plant,1755 Chaney Drive,Batesville,AR,Independence,72501,,35.760833,-091.636111
100000047558,FutureFuel Chemical Company,"2800 Gap Road, PO Box 2357",Batesville,AR,Independence,72503-2357,613174684,35.722342,-091.524983
100000062326,RINECO,1007 Vulcan Rd - Haskell,Benton,AR,Saline,72015,121614838,34.513889,-92.630556
100000166278,"CoorsTek, Arkansas Operations",1912 Dale Street,Benton,AR,Saline,72015,,34.548611,-092.609444
100000028917,Hazel Street Wastewater Treatment Plant,616 West Hazel Street,Benton,AR,Saline,72015,,34.555278,-092.594167
100000028472,Benton Water Treatment Plant,1314 Venturi Dr.,Benton,AR,Saline,72019,,34.567937,-092.601577
100000038684,"Wabash Alloys, L.L.C.",1118 Vulcan Rd.,Benton,AR,Saline,72018-0909,2468606,34.515556,-92.635833
100000032779,"Kraft Foods Global, Inc.","507 S.E. ""E"" Street",Bentonville,AR,Benton,72712,39010590,36.369444,-094.196111
100000240483,United Industries Inc,1900 E Central Ave,Bentonville,AR,Benton,72712,21344387,36.368269,-94.188813
100000147717,"Berryville, City of-WWTP",1000 West Cedarvale Road,Berryville,AR,Carroll,72616,980797252,36.354444,-93.573889
100000051524,"TYSON POULTRY, INC. BERRYVILLE, AR.",110 WEST FREEMAN AVE.,BERRYVILLE,AR,Carroll,72616-3399,,36.370833,-093.570556
100000101034,"Kinder Morgan Operating LP ""C""",6162 E State Highway 18,Blytheville,AR,Mississippi,72315,35123850,35.909167,-089.766667
100000220389,Blytheville Waterworks,200 West Rose St,Blytheville,AR,Mississippi,72315,,35.922824,-089.904357
100000249689,Murphy Jonesboro Terminal,15211 US Highway 63 North,Bono,AR,Craighead,72416,,35.961035,-90.838731
100000188584,Light LPG Terminal,507 Highway 228,Bono (Light),AR,Greene,72416-9366,,36.063117,-090.752610
100000056299,Cargill Meat Solutions Corporation,212 Mario Del Pero Street,Booneville,AR,Logan,72927-5212,154234868,35.138800,-093.900000
100000087906,Camden Waste Water Treatment Plant,101 Ouachita Road 197,Camden,AR,Ouachita,71701,,33.563056,-092.820000
100000086863,Water Treatment Plant,525 East Washington,Camden,AR,Ouachita,71701,102739203,33.589775,-92.823219
100000186372,"Camden, Arkansas Water Treatment Plant",101 Ouachita Road 197,Camden,AR,Ouachita,71707-5000,10305449,33.591111,-092.830000
100000141143,Greenville Tube Company,501 South Montgomery Street,Clarksville,AR,Johnson,72830,,35.462311,-93.472702
100000038997,"The Pictsweet Company - Clarksville, AR Plant",509 Taylor Road,Clarksville,AR,Johnson,72830,,35.451420,-093.452900
100000122627,Walmart Distribution Center #6082,3300 Sterling Hurley Hwy.,Clarksville,AR,Johnson,72830,51957769,35.428831,-093.532908
100000054772,"TYSON POULTRY, INC.- CLARKSVILLE PROCESSING PLANT",301 EAST CHERRY ST.,CLARKSVILLE,AR,Johnson,72830-3100,86628856,35.473340,-093.456927
100000101123,Pilgrim's Pride - Clinton Poultry Processing Plant,"1899 Pilgrims Pride Road, P.O. Box 240",Clinton,AR,Van Buren,72031,35460542,35.582619,-092.458064
100000057305,"Tokusen USA, Inc.","1500 Amity Road, P.O. Box 1150",Conway,AR,Faulkner,72033,608969002,35.058333,-92.415833
100000076179,Stone Dam Creek Wastewater Treatment Plant,900 Stanley Russ Road,Conway,AR,Faulkner,72034,,35.052776,-092.436386
100000076124,Roger Q. Mills Water Treatment Plant,5108 Highway 319,Conway,AR,Faulkner,72034,,35.111389,-092.521385
100000076044,Tucker Creek Wastewater Treatment Plant,1001 Sherwood Lane,Conway,AR,Faulkner,72034,,35.066665,-092.498886
100000054424,Georgia-Pacific Consumer Operations LLC ,100 Mill Supply Road,Crossett,AR,Ashley,71635,808215706,33.141976,-091.969269
100000101409,"Bakelite Chemicals LLC -  Crossett, AR",124 Paper Mill Road,Crossett,AR,Ashley,71635,,33.138368,-091.966885
100000175507,Petit Jean Water Treatment Plant,5th and Boulder,Danville,AR,Yell,72833,,35.056944,93.396111
100000050963,"Petit Jean Poultry, Danville Plant",First Street and Highway 10,Danville,AR,Yell,72833,,35.064722,-093.399722
100000063138,Wayne-Sanderson Farms - Danville Fresh Plant,2301 East 8th Street,Danville,AR,Yell,72833,797613275,35.056667,-093.370000
100000050936,"TYSON Poultry, INC. DARDANELLE, AR.","1291 N. HWY. 7, PO BOX 638",DARDANELLE,AR,Yell,72834-0000,35468131,35.217220,-93.160100
100000030316,Simmons Decatur Processing North,186 Roller Ave.,Decatur,AR,Benton,72722,,36.336226,-94.461889
100000035776,Simmons Decatur Processing South,185 Roller Ave.,Decatur,AR,Benton,72722,,36.335353,-94.461741
100000073136,Pilgrim's Pride - DeQueen Poultry Processing Plant,"401 South 3rd Street, P.O. Box 389",DeQueen,AR,Sevier,71832,93414530,34.033147,-094.339253
100000191133,"Spectra Technologies, LLC","Highland Industrial Park, 11AT Area, Highway 274",East Camden,AR,Calhoun,71711,118340400,33.617700,-092.611483
100000143294,Downtown Water Treatment Plant,307 South Jackson Street,El Dorado,AR,Union,71730,,33.209444,-092.660556
100000055664,Pilgrim's Pride - El Dorado Processing Plant,1810 South West Avenue,El Dorado,AR,Union,71730,67979158,33.193806,-092.669542
100000247592,Continental Carbonic-El Dorado,4500 N. West Avenue ,El Dorado,AR,Union,71730,,33.263722,-92.682521
100000115207,El Dorado Chemical Company,4500 North West Avenue,El Dorado,AR,Union,71730,103970307,33.158611,-092.411111
100000201462,Chemours El Dorado Plant,322 Southfield Cutoff,El Dorado,AR,Union,71730,962720640,33.110000,-092.675000
100000108901,Clean Harbors El Dorado LLC,309 American Circle,El Dorado,AR,Union,71730,,33.204498,-092.631420
100000092384,Lanxess South Plant,324 Southfield Cutoff,El Dorado,AR,Union,71730,145858770,33.111389,-092.675556
100000117189,Lycus Ltd.,181 Cooper Drive,El Dorado,AR,Union,71730,194505517,33.200194,-92.610945
100000141571,Mount Holly Water Treatment Plant,117 Britt Lane,El Dorado,AR,Union,71730,,33.233055,-092.713058
100000188726,Champagnolle Water Treatment Plant,2500 Champagnolle Rd.,El Dorado,AR,Union,71730,,33.236796,-092.626790
100000134204,Lion Oil Company,1000 McHenry,El Dorado,AR,Union,71730-1000,9197933,33.201139,-092.673278
100000112282,LANXESS Corporation - Central Plant,2226 Haynesville Highway,El Dorado,AR,Union,71730-7020,168173359,33.183223,-092.707326
100000108135,"Great Lakes Chemical, Newell Plant",3940 Haynesville Highway,El Dorado,AR,Union,71731-7020,5212808,33.167,-92.745556
100000179497,Union County Water Treatment Facility,8730 Calion Highway,ElDorado,AR,Union,71730-6434,,33.338333,-092.538056
100000041368,Carroll-Boone Water District,11510 HWY 187,Eureka Springs,AR,Carroll,72631-8995,,36.411389,-093.837500
100000054308,"TYSON FOODS, INC. (M/O EAST) FAYETTEVILLE, AR.",1851 EAST HUNTSVILLE RD.,FAYETTEVILLE,AR,Washington,72701,,36.052889,-094.134778
100000049057,"Hiland Dairy - Fayetteville, AR",301 East 15th Street,Fayetteville,AR,Washington,72701,,36.047360,-094.156092
100000164065,"Fayetteville, Arkansas - Frozen Foods",1100 West 15th Street,Fayetteville,AR,Washington,72701,965593359,36.050465,-094.177321
100000163627,"Tyson Mexican Original, Inc.  Fayetteville Complex",2615 South School Avenue,FAYETTEVILLE,AR,Washington,72701,,36.035833,-094.170278
100000172813,"Ash Grove Cement Company - Foreman, Arkansas",4457 Highway 108,Foreman,AR,Little River,71836,,33.693600,-094.425100
100000030496,"Boars Head Provisions Co., Inc. - Forrest City, AR",2530 West Broadway Street,Forrest City,AR,St. Francis,72336,,34.996528,-090.813694
100000111915,"Thorn Apple Valley, Dixie Foods Division",3133 Commerce Road,Forrest City,AR,St. Francis,72335-1053,5366984,35.050556,-90.785
100000207812,Twin Rivers Foods Inc.,609 Navy rd.,Fort Smith,AR,Sebastian,72901,929876829,35.367973,-094.428360
100000192016,Arkansas Refrigerated Services,11 North B and 24/25 North D Street,Fort Smith,AR,Sebastian,72901,,35.3931607,-94.4276511
100000049468,"Elite Comfort Solutions - Fort Smith, AR",4925 State Line Road,Fort Smith,AR,Sebastian,72902,80285987,35.335556,-094.430556
100000157723,P Street Wastewater Treatment Facility,13 North P Street,Fort Smith,AR,Sebastian,72904,71253793,35.405076,-094.417441
100000169337,Gerber Products Company,4301 Harriet Lane,Fort Smith,AR,Sebastian,72904,6019780,35.429444,-094.381389
100000061283,OK Foods - Ft. Smith,North Sixth Street & Reed Lane,Fort Smith,AR,Sebastian,72904,35499086,35.423333,-094.3844
100000142605,Americold Fort Smith 45,"8425 Highway 45 South, P.O. Box 6209",Fort Smith,AR,Sebastian,72916,3777562,35.304195,-094.380998
100000210835,HWTG - Fort Smith,6614 Old Harrison Lane,Fort Smith,AR,Sebastian,72916,49207767,35.265797,-94.364747
100000159892,"Americold, Fort Smith    # 75119",1634 Midland Blvd,Ft. Smith,AR,Sebastian,72901,58149378,35.396121,-094.408814
100000075731,Graves-Foster Water Treatment Plant,4108 Highway 355 South,Fulton,AR,Hempstead,71838,,33.624074,-093.824590
100000218542,Turk Power Plant,3711 Highway 355 S,Fulton,AR,Hempstead,71838,847178055,33.652587,-93.810368
100000242588,Benton County Processing,9806 Hwy 59,Gentry,AR,Benton,72734,,36.296964,-94.441344
100000225687,"Tyson Foods, Inc. Grannis, AR",8564 Hwy. 71 Sth,Grannis,AR,Polk,71944-0038,157159013,34.240198,-94.335945
100000052499,"TYSON POULTRY, INC. GREEN FOREST, AR.",601 TYSON DR.,GREEN FOREST,AR,Carroll,72638,,36.330556,-093.429167
100000139192,CWS Water Treatment Plant,299 Lakeshore Dr.,Greers Ferry,AR,Cleburne,72067,,35.593930,-092.169142
100000127944,Harrison Waste Water Treatment Plant,1508 Silver Valley Road,Harrison,AR,Boone,72601-1715,,36.237500,-093.077222
100000175491,Cedar Piney Water Treatment Plant,Hwy 10 West & CR574,Havana,AR,Yell,72842,,35.108611,93.491111
100000075367,"Planters Service & Sales, Inc.",1463 Highway 20 South,Helena,AR,Phillips,72342,35660620,34.476667,-90.606667
100000027641,Cypress Chemical Company,"1305 Hwy 20 South, P.O. Box 589",Helena,AR,Phillips,72342,808231328,34.476667,-090.607500
100000139888,Envirotech Chemical Services Inc.,49 Phillip's Road 311,Helena,AR,Phillips,72342,805860483,34.5200022,-90.653322
100000229317,Envirotech Chemical Services Inc.,724 Phillips Road 411,Helena,AR,Phillips,72342,805860483,34.41527,-90.6236
100000052998,"Tyson Chicken Inc., HOPE, AR.","275 COUNTY RD. 278, PO BOX 230",HOPE,AR,Hempstead,71802,67671776,33.740227,-093.613098
100000060088,Hexion Inc.,185 North Industrial Dr,Hope,AR,Hempstead,71801-8453,942200932,33.732222,-093.632500
100000128168,"TRG Hot Springs, LLC",4400 Malvern Avenue,Hot Springs,AR,Garland,71901,75645267,34.461111,-092.939722
100000086195,Hot Springs Wastewater Treatment Plant,320 Davidson,Hot Springs,AR,Garland,71901,,34.449485,-93.018622
100000086337,Lakeside Water Treatment Plant,300 Pineland Dr.,Hot Springs,AR,Garland,71901,,34.538392,-93.060067
100000043482,"US Vanadium, LLC",4285 Malvern Road,Hot Springs,AR,Garland,71901,151176625,34.463889,-092.947500
100000037051,Hot Springs Village POA Water Plant,295 Jarandilla Drive,Hot Springs Village,AR,Saline,71909,,34.679555,-092.956430
100000120987,Butterball - Huntsville,1294 N. College St.,Huntsville,AR,Madison,72740,1317304,36.101760,-093.735439
100000049182,"Univar USA Inc--Little Rock, AR",1925 Redmond Road,Jacksonville,AR,Pulaski,72076-0000,102971785,34.883639,92.137944
100000084099,"PVS DX, INC.",197 SOUTH REDMOND ROAD,JACKSONVILLE,AR,Pulaski,72076-4236,805755733,34.86305,-92.13333
100000102612,Americold - Johnson,"6403 South Ball Street, P.O. Box 558",Johnson,AR,Washington,72741,181055658,36.125556,-094.169444
100000181082,"Nestle Prepared Foods Company - Jonesboro, AR",One Nestle Way,Jonesboro,AR,Craighead,72401,8256224,35.821389,-090.583889
100000181536,Nestle Prepared Foods Company,2407 Great Dane Drive,Jonesboro,AR,Craighead,72401,8256224,35.819569,-090.576883
100000215073,CWL - Commerce Pumping Station,1900 Commerce Drive,Jonesboro,AR,Craighead,72401,73531774,35.8220586,-90.624418
100000119212,"Butterball, LLC",9401 East Highland Drive,Jonesboro,AR,Craighead,72401,,35.820530,-90.561917
100000099608,CWL-Airport Pumping Station,1612 Irby Street,Jonesboro,AR,Craighead,72401-5551,73531774,35.824404,-090.654844
100000071637,CWL-Race Street Pumping Station,2700 Middlefield Drive,Jonesboro,AR,Craighead,72401-7439,73531774,35.812586,-090.664106
100000072967,CWL-West Side Wastewater Treatment Plant,1605 Willett Road,Jonesboro,AR,Craighead,72401-8938,73531774,35.859444,-090.732584
100000071496,CWL - Medallion Pumping Station,1220 Medallion Circle,Jonesboro,AR,Craighead,72404-0691,73531774,35.802626,-090.691121
100000072903,CWL-East Side Wastewater Treatment Facility,5205 Ingels Road,Jonesboro,AR,Craighead,72404-8133,73531774,35.790355,-090.632061
100000180001,Benton/Washington Regional Public Water Authority,15005 N. Jackson Hwy,Lincoln,AR,Washington,72744,,36.075833,-94.426944
100000121209,North Little Rock - North Terminal,3222 Central Airport Road,Little Rock,AR,Pulaski,72117,,34.781927,-092.175394
100000105511,Adams Field Wastewater Treatment Plant,1001 Temple Street,Little Rock,AR,Pulaski,72202,,34.735278,-092.216111
100000040001,Affiliated Foods,12103 I-30,Little Rock,AR,Pulaski,72203,3852050,34.651472,-92.413083
100000084678,Coleman Dairy,5801 Asher,Little Rock,AR,Pulaski,72204,806606760,34.716694,-92.338556
100000063441,"J.M. Products, Inc.",3117 Joshua Street,Little Rock,AR,Pulaski,72204,86625654,34.723136,-092.321924
100000039781,"Odom's Tennessee Pride - Little Rock, AR",4701 Asher Avenue,Little Rock,AR,Pulaski,72204,112900808,34.720857,-092.323823
100000234258,Performance Foodservice Little Rock,4901 Asher Avenue,Little Rock,AR,Pulaski,72204,,34.717878,-92.327153
100000086621,Ozark Water Treatment Plant,3000 Ozark Point,Little Rock,AR,Pulaski,72205,,34.756667,-092.310278
100000232385,Port of Little Rock LPG Terminal,9700 Industrial Harbor Dr,Little Rock,AR,Pulaski,72206,,34.716133,-92.172500
100000109839,Fourche Creek Water Reclamation Facility,9500 Birdwood Drive,Little Rock,AR,Pulaski,72206,,34.697259,-092.164223
100000220619,"Sage V Foods, LLC",5901 Sloane Drive,Little Rock,AR,Pulaski,72206,42239991,34.70588,-092.20677
100000228121,Turner Holdings LLC,6901 Interstate 30,Little Rock,AR,Pulaski,72209,,34.682714,-92.310382
100000126259,Fabriclean Supply of Arkansas Limited,6600 Allied Way,Little Rock,AR,Pulaski,72209,,34.687778,-092.299722
100000036873,Harcros Chemicals Inc. - Little Rock,3100 West 65th St.,Little Rock,AR,Pulaski,72209,,34.6903,-092.31258
100000171306,"Sysco Arkansas, a Division of Sysco USA II, LLC",5800 Frozen Road,Little Rock,AR,Pulaski,72209,154239800,34.693422,-092.340391
100000086532,Jack H. Wilson Water Treatment Plant,338 Pleasant Valley Drive,Little Rock,AR,Pulaski,72212,,34.781111,-092.391667
100000064119,Smoky Hollow Foods,3200 S. WOODROW ST.,LITTLE ROCK,AR,Pulaski,72203-6548,,34.721944,-92.306111
100000141839,Americold - Lowell,515 N Bloomington Street,Lowell,AR,Benton,72745,181055658,36.262778,-094.135000
100000124386,Beaver Water District Water Treatment Facility,"101 N. Primrose Road, P.O. Box 400",Lowell,AR,Benton,72745-0400,,36.253333,-094.105556
100000168365,Albemarle Corporation East Plant,5610 Shuler Road,Magnolia,AR,Union,71753,,33.186389,-092.930056
100000072681,Grayson Field Gas Plant,411 Hwy 371 North,Magnolia,AR,Columbia,71753,,33.3069445,-093.258889
100000059018,LANXESS Corporation - West Plant,5821 Shuler Road,Magnolia,AR,Union,71753,43195429,33.183889,-092.937778
100000215956,Dorcheat Gas Plant,488 County Road 204,Magnolia,AR,Columbia,71753,,33.188113,-93.332437
100000101347,Albemarle Corporation West Plant,1550 Highway 371 West,Magnolia,AR,Columbia,71753,,33.263056,-093.315500
100000111425,Albemarle Corporation South Plant,2270 Highway 79 South,Magnolia,AR,Columbia,71753,,33.174778,-093.215750
100000086033,Magnolia Wastewater Treatment Plant,72 Columbia 300,Magnolia,AR,Columbia,71753,,33.266400,-093.267416
100000090144,Sterling Lacy Water Purification Plant,1300 West Greene,Magnolia,AR,Columbia,71753,,33.283696,-093.257790
100000088745,"Borden Chemical, Inc., Malvern Plant",2088 Wine Dot Road,Malvern,AR,Hot Spring,72104,942200932,34.388306,-92.734361
100000193168,Malvern Wastewater Treatment Plant,3672 Grigsby Ford Road,Malvern,AR,Hot Spring,72104,,34.355556,-092.846667
100000252219,Entergy  Arkansas Hot Spring Energy Facility,696 Black Branch Road,Malvern,AR,Hot Spring,72104,,34.296936,-92.867893
100000183393,Magnet Cove Generating Station,410 Henderson Road,Malvern,AR,Hot Spring,72104,,34.430000,-092.831944
100000057341,Pactiv - Malvern,"1105 Industrial Lane, PO Box 668",Malvern,AR,Hot Spring,72104-0668,,34.377393,-092.820268
100000202014,Chlorine Repair Services,24138 Hwy. 412,Marble,AR,Madison,72740,,36.139250,-093.584380
100000212236,CCS Maumelle,11100 Louis Nelson Drive,Maumelle,AR,Pulaski,72113,117430471,34.861472,-092.389639
100000013923,"Lawhorn Farm Services, Inc.","Poplar St. (Hwy 64b), South Lawhorn St.",Mc Crory,AR,Woodruff,72101-0970,35578699,35.250056,-91.200056
100000178568,McRae Terminal,194 Tank Farm Road,McRae,AR,White,72052,781768122,35.128361,-91.753667
100000142687,Mena Wastewater Treatment Facility,323 Polk County Road 53,Mena,AR,Polk,71953,,34.562778,94.186667
100000142455,Irons Fork Water Treatment Facility,536 Polk 184,Mena,AR,Polk,71953,,34.642500,-094.131667
100000189119,"Morrilton Packing Company, Inc.",51 Blue Diamond Drive,Morrilton,AR,Conway,72110,,35.170278,-092.712222
100000234285,Baxter Healthcare,1900 Hwy 201 N,Mountain Home,AR,Baxter,72653,,36.3586166,-92.3883777
100000075795,Robert E. Hurst Water Treatment Plant,994 Water Plant Road,Mountain Home,AR,Baxter,72653,,36.395581,-092.330450
100000075946,Mountain Home Wastewater Treatment Plant,537 Hicks Road,Mountain Home,AR,Baxter,72653,,36.301428,-092.382221
100000113352,Ouachita Water Treatment Plant,860 Cozy Acres,Mountain Pine,AR,Garland,71956,,34.549073,-93.183235
100000120665,Lake Fort Smith Water Treatment Plant,2100 Lake Fort Smith Road,Mountainburg,AR,Crawford,72946,,35.649076,-094.153753
100000087586,Nashville Waste Water Treatment Plant,743 Hwy 27 Bypass,Nashville,AR,Howard,71852,,33.573200,-093.503800
100000087345,Nashville Water Treatment Plant,300 Lake Nichols Street,Nashville,AR,Howard,71852,75667014,33.958333,-93.844
100000051695,"TYSON POULTRY, INC. NASHVILLE, AR.",100 EAST CASSADY,NASHVILLE,AR,Howard,71852,6903702,33.926996,-093.846634
100000200445,"Norphlet Chemical, Inc.",600 Macmillan Drive,Norphlet,AR,Union,71759,,33.183400,-092.392200
100000194149,DeWafelbakkers,10000 Crystal Hill Road,North Little Rock,AR,Pulaski,72113,,34.819167,-092.372500
100000255243,"Welsco, Inc",9006 Crystal Hill Rd.,North Little Rock,AR,Pulaski,72113,943169482,34.812600,-92.364610
100000052845,"TYSON FOODS, INC. (N. LITTLE ROCK, AR.)",3800 PROGRESS ST.,NORTH LITTLE ROCK,AR,Pulaski,72114,,34.758056,-092.223889
100000243364,Americold North Little Rock,1400 Gregory Street,North Little Rock,AR,Pulaski,72114,58149378,34.768765,-92.245579
100000225767,L'Oreal USA,11500 Maybelline Road,North Little Rock,AR,Pulaski,72117,,34.781533,-92.138295
100000228808,North Little Rock Terminal,2207 Central Airport Road,North Little Rock,AR,Pulaski,72117,,34.770924,-92.177797
100000247128,"US Foods, Inc. - Little Rock",800 Fiber Optic Drive,North Little Rock,AR,Pulaski,72117,795140433,34.735204,-92.146462
100000236363,Ben E. Keith - Mid-South,1 Ben E Keith Way,North Little Rock,AR,Pulaski,72117,,34.7725,-092.16473
100000145817,Faulkner Lake Treatment Plant,7400 Baucum Pike,North Little Rock,AR,Pulaski,72117,,34.737660,-092.180420
100000145345,White Oak Bayou Treatment Plant,6000 Heilman,North Little Rock,AR,Pulaski,72118,,34.799388,-092.334444
100000145835,Five Mile Creek Treatment Plant,5601 East 54th,North Little Rock,AR,Pulaski,72231,,34.80368,-92.201380
100000188619,Rixie LPG Terminal,8021 Highway 161,North Little Rock,AR,Pulaski,72117-1805,,34.823895,-092.160740
100000196977,"HWRT Terminal - N  Little Rock, LLC",2626 Central Airport Road,North Little Rock,AR,Pulaski,72117-9504,,34.776419,-092.176278
100000111899,Viskase Corporation,2221 East State Highway 198,Osceola,AR,Mississippi,72370,,35.652166,-089.939628
100000224223,Actagro LLC,1300 Richard Prewitt Dr,Osceola,AR,Mississippi,72370,806627618,35.6900277,-89.9891944
100000209874,Plum Point Energy Station,2732 South County Road 623,Osceola,AR,Mississippi,72370,50444603,35.663731,-89.946567
100000095602,"Kagome Foods, Inc",710 North Pearl Street,Osceola,AR,Mississippi,72370-0368,7028160,35.710036,-089.964589
100000122672,"Butterball, LLC",307 Dodgen Place,Ozark,AR,Franklin,72949,122262280,35.4846776,-093.817837
100000078364,Wastewater Treatment Plant,401 Grant Lane,Paragould,AR,Greene,72450,,36.033056,-090.492778
100000064529,Water Treatment Plant,320 North 5th Avenue,Paragould,AR,Greene,72450,,36.059416,-90.480685
100000019883,Farmers Liquid Fertilizer,"Hwy 17 South, Hwy 64b",Patterson,AR,Woodruff,72123,,35.257778,-91.233611
100000037783,Evergreen Packaging  - Pine Bluff Mill,5201 Fairfield Road,Pine Bluff,AR,Jefferson,71601,791143972,34.220000,-091.905000
100000054415,"TYSON POULTRY INC. PINE BLUFF, AR. (FP-JP)","5505 JEFFERSON PKWY., PO BOX 7467",PINE BLUFF,AR,Jefferson,71602-3439,790015630,34.264209,-092.075733
100000012194,Conway County Regional Water Distribution District,#30 H20 Drive,Plumerville,AR,Conway,72127,,35.178889,-092.647222
100000232072,Peco Foods Inc - Pocahontas Processing Facility,4114 Hwy 67 South,Pocahontas,AR,Randolph,72455,,36.214444,-90.956112
100000075875,Atkins Water Treatment Plant,293 Galla Park Road,Pottsville,AR,Pope,72858,,35.260833,-093.051389
100000052284,Petit Jean Poultry,2200 Townwest Drive,Rogers,AR,Benton,72756,,36.352778,-94.149722
100000199616,Don's Cold Storage Facility,801 West Easy Street,Rogers,AR,Benton,72756,623255028,36.349998,-094.126976
100000052444,"TYSON POULTRY, INC. - Tyson of Rogers",212 EAST ELM,ROGERS,AR,Benton,72756,40637290,36.332164,-94.114842
100000140803,"Swift Chemical Co., Inc.",2001 S. First Street,Rogers,AR,Benton,72758,77402345,36.308472,-94.114583
100000235051,Rogers Pollution Control Facility,4300 Rainbow Rd,Rogers,AR,Benton,72758,,36.299739,-94.214216
100000171164,"TYSON POULTRY, INC. CHICK-N-QUICK","400 WEST OLRICH ST., PO BOX 900",ROGERS,AR,Benton,72756-0988,17863457,36.318333,-094.121111
100000052079,TYSON DISTRIBUTION CENTER,"402 WEST OLRICH ST., PO BOX 900",ROGERS,AR,Benton,72756-5906,111253308,36.316914,-94.121943
100000179727,Water Treatment Plant,15531 Woods Lodge Road,Rogers,AR,Benton,72756-9088,,36.398135,-94.0345087
100000147888,Russellville Water Treatment Plant,74 Water Works Loop,Russellville,AR,Pope,72801,,35.336111,-093.144722
100000163609,"TYSON FOODS, INC. RUSSELLVILLE DISTRIBUTION CENTER",702 EAST MAIN,RUSSELLVILLE,AR,Pope,72801,,35.277695,-93.123850
100000159838,"Americold, Russellville Elmira -  Plant #78417",300 South Elmira,Russellville,AR,Pope,72801,58149378,35.274594,-93.106047
100000060104,Anitox  Russellville Plant,6464 State Road 7,Russellville,AR,Pope,72802,85155765,35.336389,-093.132500
100000150873,Russellville Pollution Control Works,404 Jimmy Lile Road,Russellville,AR,Pope,72802,,35.249167,-093.116111
100000159712,"Tyson Foods, Inc. TVDC West",203 Industrial Blvd,Russellville,AR,Pope,72802,786180620,35.260550,-093.069140
100000104317,Americold - Russellville 324,"500 State Road 324 South, P.O. Box 11300",Russellville,AR,Pope,72802,181055658,35.271808,-93.093491
100000054585,"TYSON POULTRY, INC. RUSSELLVILLE, AR. (TYLER RD.)",620 TYLER RD.,RUSSELLVILLE,AR,Pope,72802,,35.269407,-093.087038
100000051597,"TYSON FOODS, INC. RUSSELLVILLE, AR. (TVDC)",4820 EAST MAIN STREET,RUSSELLVILLE,AR,Pope,72802,786180620,35.260443,-93.067572
100000093392,"Russellville, Arkansas - Frozen Foods",3100 East Main Street,Russellville,AR,Pope,72802-9667,38886073,35.275063,-093.094992
100000110532,ITT Industries - Fluid Handling Systems - Searcy,100 Queensway,Searcy,AR,White,72143,62146766,35.238583,-91.723528
100000076954,Kohler Company,920 E. Lincoln Ave,Searcy,AR,White,72143,174895193,35.241172,-091.725570
100000134632,Searcy Gas Plant,2227 Highway 267 South,Searcy,AR,White,72143,,35.205472,-091.771111
100000075492,Searcy Wastewater Treatment Plant,8700 HW13,Searcy,AR,White,72143,,35.267886,-91.716056
100000118963,"Land O'Frost, Inc.",911 Hastings Avenue,Searcy,AR,White,72143,47031190,35.238488,-091.727109
100000235168,Turkey Hill Dairy - Searcy,205 South Spring St.,Searcy,AR,White,72143,,35.247195,-91.738239
100000075544,Water Treatment Plant,184 Riverside Park Road,Searcy,AR,White,72143,,35.280451,-091.721936
100000252335,"Nucor Insulated Panel Group Sheridan, AR",1811 N Rock St,Sheridan,AR,Grant,72150,4434843,34.326201 ,-92.396510 
100000036052,Water Pollution Control Facility,975 Anderson Avenue,Siloam Springs,AR,Benton,72761,,36.193972,-094.564028
100000030806,Daniels Water Treatment Plant,2600 S. Carl Street,Siloam Springs,AR,Benton,72761,,36.162776,-094.553055
100000019464,"Simmons Foods, SSP1",316 N. Hico,Siloam Springs,AR,Benton,72761,,36.187500,-094.533889
100000012023,"Simmons Foods, SSFP",1001 East Main,Siloam Springs,AR,Benton,72761,,36.188091,-94.533826
100000235088,Simmons Feed Ingredients Inc. - Siloam Springs,1113 E Ashley Rd,Siloam Springs,AR,Benton,72761,,36.187775,-94.530005
100000230038,Cross Oil Refining and Marketing,484 E. 6th Street,Smackover,AR,Union,71762,10283828,33.363611,-92.714167
100000145979,Wastewater Treatment Plant,2910 Silent Grove Rd.,Springdale,AR,Washington,72762,,36.211498,-094.163378
100000157607,"George's, Processing Plant",1306 N. Kansas,Springdale,AR,Washington,72764,103649281,36.198531,-094.139374
100000175758,George's Further Processing Plant,701 Porter Ave.,Springdale,AR,Washington,72764,27801617,36.170206,-94.136348
100000125134,Frez-N-Stor Inc.,"610 Porter Ave., P. O. Box 88",Springdale,AR,Washington,72764,7807324,36.174167,-094.134167
100000238548,Darling Ingredients Springdale,1013 N Jefferson St,Springdale,AR,Washington,72764,,36.195106,-94.121632
100000147085,Cargill Meat Solutions Springdale,730 East Randall Wobbe Lane,Springdale,AR,Washington,72764,6249189,36.205244,-94.121870
100000051917,RANDALL ROAD CORNISH PLANT,"671 RANDALL WOBBE LANE, PO BOX 2020",SPRINGDALE,AR,Washington,72764,,36.202867,-94.134971
100000159801,"Americold, Springdale - Plant # 78418",1200 North Old Missouri RD.,Springdale,AR,Washington,72765,58149378,36.194181,-094.118731
100000052952,"SPRINGDALE, AR. (BERRY ST.)","600 NORTH BERRY ST., PO BOX 2020",SPRINGDALE,AR,Washington,72764-3499,,36.190840,-94.125962
100000163789,McKamie Gas Plant,"Lafayette County Road 36, 213 Lafayette 36",Stamps,AR,Lafayette,71860-0066,,33.252730,-93.494175
100000148789,Berry Petroleum Company,658 Ouachita 137,Stephens,AR,Ouachita,71764,148076268,33.417222,-93.0575
100000014003,"Stuttgart, AR",502 North Grand Avenue,Stuttgart,AR,Arkansas,72160,,34.505500,-091.549496
100000103611,Lake Erling Gas Processing Plant,734 Lafayette 8,Taylor,AR,Lafayette,71861,13091892,33.033333,-93.6125
100000109278,"Quantum Resources Management, Walker Creek Gas Pl",12261 Hwy 371,Taylor,AR,Columbia,71861,,33.077972,-093.460583
100000064501,Texarkana Plant,Rt. 1 Box 2430,Texarkana,AR,Miller,71854,14995430,33.326389,-94.005556
100000177266,Dow Chemical,1 Jim Walter Drive,Texarkana,AR,Miller,71854,,33.45,-94.008333
100000159687," Americold, Texarkana, Plant #78451",3609 Genoa Rd.,Texarkana,AR,Miller,71854,58149378,33.413908,-093.997713
100000031182,City of Van Buren Main Plant,1401 Port Road,Van Buren,AR,Crawford,72956,,35.424444,-094.334444
100000174385,Kaylor Ammonia,2508 Oak Grove Road,Van Buren,AR,Crawford,72956,,35.235204,-094.297300
100000051418,"TYSON FOODS, INC. VAN BUREN, AR.",802 SOUTH 28TH. ST.,VAN BUREN,AR,Crawford,72956,,35.424859,-094.329573
100000120442,Lee Creek Water Treatment Facility,2425 Pine Hollow Road,Van Buren,AR,Crawford,72956,,35.486653,-094.388674
100000011943,"Simmons Foods, VB Main",5 Main Street,Van Buren,AR,Crawford,72956,,35.433056,-094.357500
100000012247,"Simmons Foods, VB Cook & DC",2101 Twin Circle Drive,Van Buren,AR,Crawford,72956,,35.427589,-094.336993
100000033171,ALLIED UNIVERSAL CORPORATION,2100 PORT ROAD,W. MEMPHIS,AR,Crittenden,72301,4134623,35.109228,-090.192250
100000052202,"TYSON POULTRY, INC. WALDRON, AR.",442 Plant Street,WALDRON,AR,Scott,72958,6353767,34.904039,-94.102994
100000113888,Water Treatment Plant,"P.O. Box 310, 106 East Water Street",Waldron,AR,Scott,72958,,34.922442,-94.094568
100000102328,Diaz Intermediates Corporation,301 Wyanoke Road,West Memphis,AR,Crittenden,72301,825081854,35.107222,-90.1925
100000176196,West Memphis LPG Terminal,1241 South 8th Street,West Memphis,AR,Crittenden,72301,,35.1311615,-90.175084
100000159874,"Americold, West Memphis - Plant # 75139",1651 South Air Port Rd.,West Memphis,AR,Crittenden,72301,58149378,35.124431,-90.230819
100000059508,TETRA Technologies - West Memphis Plant,2201 Port Road,West Memphis,AR,Crittenden,72301,606793099,35.107778,-090.190278
100000127178,BASF Corporation,100 Bridgeport Rd,West Memphis,AR,Crittenden,72301-6413,1307032,35.130556,-090.106944
100000172555,WYNNE WATER UTILITIES,545 Bowden Road,Wynne,AR,Cross,72396,,35.143361,-91.042667
100000248305,Coastal Energy Corporation-Yellville Transload,176 Development Drive,Yellville,AR,Marion,72687,,36.244789,-92.703010
100000015805,COS Samoa Packing Company,Highway 1,Atu'u,AS,Manu'a District,96799,172022154,-14.160708,-169.410000
100000181723,Mesquite Generating Station,37625 West Elliot Road,Arlington,AZ,Maricopa,85322,,33.346111,-112.863333
100000177701,Arizona Public Service Company Redhawk Power Plant,11600 South 363rd Ave.,Arlington,AZ,Maricopa,85322,6901995,33.335833,-112.840528
100000052168,"WILBUR-ELLIS COMPANY, BUCKEYE",6415 SOUTH RAINBOW ROAD,BUCKEYE,AZ,Maricopa,85326,6913479,33.381944,-112.541667
100000166722,"Helena Chemical Company, Buckeye, Arizona","26675 W. Baseline Road,",Buckeye,AZ,Maricopa,85326,,33.377694,-112.622056
100000183099,"Helena Chemical Company, Buckeye AZ",30826 South Old Highway 80,Buckeye,AZ,Maricopa,85326,,33.163333,-112.683611
100000254306,QC West Coast Inc.,702 N 4th Street,Buckeye,AZ,Maricopa,85326,931121610,33.377006,-112.586294
100000242917,"Airgas Specialty Products - Buckeye, AZ",26705 Baseline Road,Buckeye,AZ,Maricopa,85326,,33.466433,-112.578697
100000151159,"Fertizona - Buckeye, LLC",26705 West Baseline Road,Buckeye,AZ,Maricopa,85326-5494,21650189,33.366667,-112.583333
100000137755,Phoenix Cement Company-Verde Gypsum Mine,"5.5 Miles East of Camp Verde, Highw",Camp Verde,AZ,Yavapai,86322,108588716,34.535556,-110.785
100000006058,Carefree Water Company,7181 Sleepy hollow road,Carefree,AZ,Maricopa,85377,,33.814306,-111.890556
100000106271,"Casa Grande, AZ",447 West 1st Street,Casa Grande,AZ,Pinal,85122,,32.878533,-111.759487
100000132215,"Abbott Nutrition Division, Casa Grande",1250 West Maricopa Highway,Casa Grande,AZ,Pinal,85193,121457485,32.888111,-111.786139
100000149966,"Fertizona - Casa Grande, LLC",2850 South Peart Road,Casa Grande,AZ,Pinal,85193,21650189,32.854167,-111.723611
100000169541,City of Casa Grande Water Reclamation Facility,1194 W. Kortsen Rd,Casa Grande,AZ,Pinal,85222,982511461,32.909694,-111.785278
100000182802,Walmart Distribution Center #7013,868 W. Peters Road,Casa Grande,AZ,Pinal,85293,51957769,32.867226,-111.768848
100000210693,"Daisy Brand, LLC",752 West Ash Avenue,Casa Grande,AZ,Pinal,85913,,32.873803,-111.76812
100000129283,"ADFlex Solutions, Inc.",2001 W. Chandler Blvd.,Chandler,AZ,Maricopa,85224,805289451,33.306667,111.883333
100000024083,"Solkatronic Chemicals, Inc. Lone Butte, AZ",7007 Sundust Rd.,Chandler,AZ,Maricopa,85226,154154793,33.281667,-111.956944
100000215885,"Rinchem Company, Inc.",6888 Frye Rd,Chandler,AZ,Maricopa,85226,25003265,33.298834,-111.961192
100000241749,"Rinchem Company, LLC. CSC 14",6805 W. Morelos Pl,Chandler,AZ,Maricopa,85226,,33.292240,-111.958409
100000215652,Intel Corporation Ocotillo Campus,"4500 S Dobson Road, M/S: OC4-005",Chandler,AZ,Maricopa,85248,128197675,33.2444,-111.888
100000027687,Chandler Water Treatment Plant,1475 E Pecos Rd,Chandler,AZ,Maricopa,85225-1134,77524981,33.289750,-111.815972
100000052266,Bashas' Distribution Center,200 South 56th Street,Chandler,AZ,Maricopa,85226-3303,99375321,33.302611,-111.965444
100000028114,Lone Butte Wastewater Treatment Plant,"I-10 and Maricopa Road, PO Box 4008, MS 912",Chandler,AZ,Maricopa,85244-4008,,33.257972,-112.017417
100000150784,Fertizona Coolidge - LLC,Pima Coolidge Industrial Park,Coolidge,AZ,Pinal,85228,21650189,32.933333,-111.416667
100000175963,City of El Mirage Wastewater Treatment Plant,12000 West Peoria Avenue,El Mirage,AZ,Maricopa,85335,,33.578611,-112.319722
100000147799,Hasa Inc - Eloy,735 Eleven Mile Corner Road,Eloy,AZ,Pinal,85131,,32.757788,-111.567090
100000163681,"Monsanto Company, Eloy, AZ",15790 South Highway 87,Eloy,AZ,Pinal,85231,,32.736300,-111.516500
100000190483,Republic Plastics LTD,1550 West Battaglia Road,Eloy,AZ,Pinal,85231,60990624,32.763055,-111.578056
100000036338,North Reservoir Filtration Plant,3620 N. Shultz Pass Rd.,Flagstaff,AZ,Coconino,86001,,35.237778,-111.662500
100000170879,Enterprise Flagstaff (Winona) Terminal,13625 Townsend Winona Highway,Flagstaff,AZ,Coconino,86004,,35.204778,-111.406111
100000033947,Wildcat Hill Water Reclamation Plant,2800 N. El Paso Flagstaff Rd.,Flagstaff,AZ,Coconino,86004,879044758,35.225332,-111.553941
100000036276,Lake Mary Water Treatment Plant,4500 S. Lake Mary Road,Flagstaff,AZ,Coconino,86005,,35.150414,-111.651786
100000228611,Fountain Hills Sanitary District AWTF,16910 East Kiwanis Drive,Fountain Hills,AZ,Maricopa,85268,,33.598954,-111.714931
100000101203,Fountain Hills Wastewater Treatment Plant,16941 East Pepperwood Circle,Fountain Hills,AZ,Maricopa,85268-2901,,33.614920,-111.714172
100000074929,Town of Gilbert Water Treatment Plant,2865 East Guadalupe Road,Gilbert,AZ,Maricopa,85234,,33.362926,-111.729475
100000093622,Sunbelt Chemical Inc.,99 E. Silver Creek Rd.,Gilbert,AZ,,85296,,33.347139,-111.787889
100000251032,"Brooklyn Bedding, LLC",5301 W. Bethany Home Rd.,Glendale,AZ,Maricopa,85301,963440651,33.5226057,-112.174373
100000093891,Cholla Water Treatment Plant,4805 West Cholla Street,Glendale,AZ,Maricopa,85304,77523579,33.587825,-112.161179
100000170398,Bumstead Storage Caverns,7511 North Dysart Road,Glendale,AZ,Maricopa,85307,167877278,33.544167,-112.341111
100000084179,"PVS DX, INC.",4909 W. PASADENA AVENUE,GLENDALE,AZ,Maricopa,85301-7620,42304936,33.510833,-112.165
100000175446,"Griffith Energy, LLC",3375 West Navajo Drive,Golden Valley,AZ,Mohave,86413,109238134,35.051700,-114.133380
100000252442,Interstate Warehousing Kingman,6360 S Apache Road,Golden Valley,AZ,Mohave,86413,,35.03986,-114.13802
100000040939,Goodyear 157th Ave. Wastewater Treatment Plant,5424 So. 157th Avenue,Goodyear,AZ,Maricopa,85338,,33.3975,-112.387222
100000141599,"Patterson West, Goodyear",15836 West Eddie Albert Way,Goodyear,AZ,Maricopa,85338,,33.3975,-112.379444
100000048281,"Del Monte Fresh Produce (Southwest), Inc.",14550 W. La Estrella,Goodyear,AZ,Maricopa,85338,42559138,33.410170,-112.373060
100000246496,Healthcare AZ LLC,3350 N. Cotton Ln,Goodyear,AZ,Maricopa,85395,,33.484589,-112.428973
100000098388,Freeport-McMoRan Sierrita Inc.,6200 West Duval Mine Road,Green Valley,AZ,Pima,85622-0527,173239385,31.876444,-111.100472
100000173867,Enterprise Adamana Storage and Terminal,113 County Road # 7156,Holbrook,AZ,Apache,86025,,34.978944,-109.824778
100000239725,UETM Kingman Terminal,"4505 E Mohave Airport Drive, Track #5115",Kingman,AZ,Mohave,86401,,35.275346,-113.945137
100000249457,Acuity Specialty Products dba Zep Sales & Service,4625 Interstate Way,Kingman,AZ,Mohave,86401,,35.26064,-113.95398
100000128925,"Linde Gas & Equipment Inc.- Kingman, AZ",Interstate 40 & Griffith Road,Kingman,AZ,Mohave,86401,612796912,35.028270,-114.136102
100000106592,Honeywell Kingman Facility,4790 Olympic Drive,Kingman,AZ,Mohave,86401-6771,39136262,35.267694,-113.942556
100000195727,Lake Havasu City Public Works Department,925 Port Drive,Lake Havasu City,AZ,Mohave,86404,37613692,34.49887,-114.359459
100000252362,Healthcare Glendale,6605 North Sarival Avenue,Litchfield Park,AZ,Maricopa,85340,,33.532013,-112.405378
100000200418,"Pinal Energy, LLC",38585 W Cowtown Rd,Maricopa,AZ,Pinal,85138,197270635,33.013948,-111.985246
100000034713,Northwest Water Reclamation Plant,960 N. Riverview,Mesa,AZ,Maricopa,85201,,33.432972,-111.879250
100000034795,Southeast Water Reclamation Plant,6308 E. Baseline Road,Mesa,AZ,Maricopa,85206,,33.380556,-111.694167
100000034759,Brown Road Water Treatment Plant,7750 E. Brown Road,Mesa,AZ,Maricopa,85207,,33.441347,-111.664612
100000200524,Infineon Technologies Epi Services Inc.,550 West Juanita Ave.,Mesa,AZ,Maricopa,85210,868624057,33.382950,-111.843636
100000091223,S.W.D. URETHANE COMPANY,539 S. DREW STREET,MESA,AZ,Maricopa,85210,74472804,33.405000,-111.832500
100000210087,"MGC Pure Chemicals America, Inc.",6560 S. Mountain Road,Mesa,AZ,Maricopa,85212,959948027,33.294653,-111.594748
100000075198,"FUJIFILM Electronic Materials U.S.A., Inc., Mesa ",6550 S. Mountain Road,Mesa,AZ,Maricopa,85212-7988,956985899,33.297167,-111.594000
100000035179,Val Vista Water Treatment Plant,3200 E. McDowell Road,Mesa,AZ,Maricopa,85213-1710,,33.468155,-111.764806
100000055771,"Pinto Valley Operations, Copper Cities Unit","Highway 88, Copper Cities Road",Miami,AZ,Gila,85539,8966731,33.437222,-110.888889
100000219435,"BHP Copper, Pinto Valley Unit",2911 N Forest Service Road 287,Miami,AZ,Gila,85539,,33.394268,-110.967660
100000175151,South Point Energy Center,3779 Courtwright Road,Mohave Valley,AZ,Mohave,86440,,34.867722,-114.533561
100000126829,"Phelps Dodge Morenci, Inc.",4521 US Highway 191,Morenci,AZ,Greenlee,85540,808164040,33.058160,-109.346650
100000021193,American Gulch Wastewater Treatment Plant,2200 West Doll Baby Ranch Road,Payson,AZ,Gila,85547,38438594,34.286056,-111.359778
100000127365,"MLS Superior Pool Service, Inc.","7952 W. Gold Dust, Suite #4",Peoria,AZ,Maricopa,85345,,33.575889,-112.229444
100000254832,"World Class Distribution, Inc. - Peoria",8650 N. 75th Ave.,Peoria,AZ,Maricopa,85345,,33.561016,-112.222743
100000196067,Lake Pleasant Water Treatment Plant,37000 N New River Road,Peoria,AZ,Maricopa,85383,121021015,33.8219122,-112.239660
100000178103,"City of Peoria, Greenway Water Treatment Plant",7300 W Greenway Road,Peoria,AZ,Maricopa,85831-4486,2494128,33.626389,-112.215556
100000128293,SCI LLC,5005 E. McDowell Road,Phoenix,AZ,Maricopa,85008,,33.463056,-111.970833
100000192338,Iron Mountain Data Center,615 North 48th Street,Phoenix,AZ,Maricopa,85008,,33.454167,-111.976667
100000035357,Linde Gas & Equipment - Phoenix,1122 North 52nd Street,Phoenix,AZ,Maricopa,85008,42845636,33.460845,-111.973392
100000164813,"Praxair Distribution - Phoenix, AZ",3918 W. Lincoln Street,Phoenix,AZ,Maricopa,85009,945765527,33.443083,-112.143694
100000074304,"Tessenderlo Kerley, Inc. - Phoenix Facility",2248 W. Lower Buckeye Rd,Phoenix,AZ,Maricopa,85009,182606848,33.422816,-112.108101
100000214886,Shamrock Arizona Dairy,2228 N BLACK CANYON HWY,PHOENIX,AZ,Maricopa,85009,42370734,33.281989,-112.065420
100000126099,Flex Foam,617 N. 21ST Avenue,Phoenix,AZ,Maricopa,85009,95910683,33.455000,-112.102500
100000249956,"Columbus Chemical Industries, Inc.",4034 W Washington Street,Phoenix,AZ,Maricopa,85009,126263222,33.44856,-112.14600
100000033206,23rd Avenue Wastewater Treatment Plant,2470 S. 22nd Ave.,Phoenix,AZ,Maricopa,85009,,33.423067,-112.109519
100000043106,Shamrock Foods Arizona Distribution Center,2540 North 29th Avenue,Phoenix,AZ,Maricopa,85009,42370734,33.476610,-112.121979
100000064333,Hill Brothers Chemical Co. - Phoenix Facility 2006,4450 North 42nd Avenue,Phoenix,AZ,Maricopa,85019,56599178,33.500556,-112.147778
100000212478,Dairy Maid,1910 West Mountain View Road,PHOENIX,AZ,Maricopa,85021,42370734,33.575454,-112.101641
100000149332,"Alameda Chemical & Scientific of Arizona, Inc.",922 East Southern Pacific Drive,Phoenix,AZ,Maricopa,85034,,33.442861,-112.061
100000043062,Shamrock Farms Creamery,2434 East Pecan,Phoenix,AZ,Maricopa,85040,42370734,33.39525,-112.028194
100000154389,"Hadco Phoenix, Inc",5020 S. 36th St.,Phoenix,AZ,Maricopa,85040,,33.399722,-112.133333
100000085016,Aqua Clear Pool Chemical Inc.,3901 S. 28th Street,Phoenix,AZ,Maricopa,85040,,33.411364,-112.021049
100000181956,Safeway Phoenix Ice Cream Plant,2434 E. Pecan Road,Phoenix,AZ,Maricopa,85040,,33.396765,-112.028141
100000133526,Reddy Ice-Phoenix (203),4626 South 40th Street,Phoenix,AZ,Maricopa,85040,,33.405000,-111.996390
100000183516,"Rinchem Company, LLC.",4625 36th Street,Phoenix,AZ,Maricopa,85040,79848112,33.405111,-112.002473
100000158517,Fry's Food & Drug Stores,6101 W Washington Street,Phoenix,AZ,Maricopa,85043,35902444,33.448056,-112.190833
100000188968,KTR Warehouse,6111 W. Washington Street,Phoenix,AZ,Maricopa,85043,,33.446944,-112.194722
100000016993,Jacobson Distribution Company,One North 59th Avenue,Phoenix,AZ,Maricopa,85043,65116626,33.449167,-112.185000
100000241945,Airgas Phoenix,301 S. 45th Avenue,Phoenix,AZ,Maricopa,85043,,33.4398432,-112.155117
100000212487,Cafe Valley Bakery,7000 W. Buckeye Road,Phoenix,AZ,Maricopa,85043,115114209,33.438876,-112.210768
100000233561,Mclane Foodservice,7600 W Roosevelt St,Phoenix,AZ,Maricopa,85043,,33.46007,-112.2228
100000233197,CALJET OF AMERICA INC,125 N 53RD AVE,PHOENIX,AZ,Maricopa,85043,,33.449187,-112.177543
100000176739,APS West Phoenix Power Plant,4606 W. Hadley St.,Phoenix,AZ,Maricopa,85043,6901995,33.449667,-112.164583
100000251595,Kinder Morgan Phoenix Terminal,49 N 53rd Ave.,Phoenix,AZ,Maricopa,85043,827169454,33.448333,-112.174722
100000159678,Performance Foodservice - Arizona,455 S. 75th Ave,Phoenix,AZ,Maricopa,85043,,33.443272,-112.220079
100000223885,Winco Foods LLC Phoenix Distribution Center #87,7502 West Durango Street,Phoenix,AZ,Maricopa,85043,,33.43194,-112.225278
100000033313,"U. S. Foods, Inc. - Phoenix",4650 W. Buckeye Road,Phoenix,AZ,Maricopa,85043,609815618,33.437809,-112.159983
100000187843,Atlas Roofing Corporation,40 South 45th Avenue,Phoenix,AZ,Maricopa,85043,,33.447500,-112.156400
100000106912,Pyramid Peak Water Treatment Plant,28101 N. 63rd Avenue,Phoenix,AZ,Maricopa,85083,77523579,33.737724,-112.192432
100000252353,TSMC Arizona Corporation,5088 W. Innovation Circle,Phoenix,AZ,Maricopa,85083,,33.786167,-112.147528
100000251407,Air Liquide Gas Plant - TSMC,32500 N 51st Ave,Phoenix,AZ,Maricopa,85086,,33.78089,-112.17739
100000030334,64th Street Reservoir,2650 N. 64th Street,Phoenix,AZ,Maricopa,85257,,33.478699,-111.945524
100000036613,"GQ Enterprises, Inc. dba Poolman",1444 North 26th Avenue,Phoenix,AZ,Maricopa,85009-3625,108514985,33.464889,-112.115667
100000036454,24th Street Water Treatment Plant,6202 N. 24th Street,Phoenix,AZ,Maricopa,85016-2013,,33.532688,-112.031452
100000035204,Union Hills Water Treatment Plant,2001 E. Deer Valley Road,Phoenix,AZ,Maricopa,85024-5516,,33.683263,-112.036330
100000082064,"A Diamond Pool, Inc.",21411 North 11th Avenue,Phoenix,AZ,Maricopa,85027-2835,37612124,33.681637,-112.085915
100000054601,"Splish Splash Pool Chemicals, Inc.","519 West Lone Cactus Drive, #101",Phoenix,AZ,Maricopa,85027-2920,148863566,33.680778,-112.080582
100000036908,16th Street Facility,1616 East Lincoln Street,Phoenix,AZ,Maricopa,85034-3440,9011487,33.428056,112.042778
100000191393,Poolman 2000 Inc.,3242 South Central Avenue,Phoenix,AZ,Maricopa,85040-1004,108514985,33.417953,-112.073555
100000147138,"Pool-Chem D.L.S. Enterprises, Inc.",3646 South 36th Street,Phoenix,AZ,Maricopa,85040-1655,95919296,33.413014,-112.004196
100000078275,Univar USA Inc.,50 South 45th Avenue,Phoenix,AZ,Maricopa,85043-3907,,33.446944,-112.158056
100000039692,Deer Valley Water Treatment Plant,3030 W. Dunlap Avenue,Phoenix,AZ,Maricopa,85051-3429,,33.568796,-112.128099
100000253487,"Sunlit Arizona, LLC",777 W Alameda Rd,Phoenix,AZ,Maricopa,85085-6104,,33.703975,-112.084298
100000014628,"The Dune Company of Poston, Arizona",26760 Mohave Rd.,Poston,AZ,La Paz,85371,56978885,33.946111,-114.423028
100000052694,"Poston, AZ 617",Agnes Wilson & Mohave Road,Poston,AZ,La Paz,85371,50365121,34.042222,-114.389722
100000120086,Nogales International Wastewater Treatment Plant,865 Rio Rico Industrial Park,Rio Rico,AZ,Santa Cruz,85648,,31.456667,-110.968056
100000014272,"The Dune Company of Roll, Arizona",5290 Avenue 38E,Roll,AZ,Yuma,85347,51457901,32.746333,-113.989
100000150999,"Fertizona Roll, LLC",4212 South Avenue 39E,Roll,AZ,Yuma,85347,21650189,32.764127,-113.971578
100000150891,Fertizona San Tan - LLC,San Tan Industrial Park,Sacaton,AZ,Pinal,85247,21650189,33.083333,-111.783333
100000154959,"WILBUR-ELLIS COMPANY, SACATON","HIGHWAY 87, SANTAN INDUSTRIAL PARK",SACATON,AZ,Pinal,85247,6913479,33.173333,-111.794722
100000153399,"ALKEMIN, S. DE R.L. DE C.V.",2480 Twin Buttes Road,Sahuarita,AZ,Pima,85629,,31.939610,-111.018626
100000198966,"Republic Plastics, L.P.",27095 South Airport Road,San Manuel,AZ,Pinal,85631-0150,60990624,32.629394,-110.631569
100000058144,Well Site #80,8600 East Thomas Road,Scottsdale,AZ,Maricopa,85251,74465238,33.480833,-111.895278
100000167954,Well Site # 95,16010 N Pima Rd,Scottsdale,AZ,Maricopa,85255,74468238,33.635556,-111.89
100000058082,Scottsdale Water Campus,8787 E. Hualapai Drive,Scottsdale,AZ,Maricopa,85255,,33.658820,-111.893371
100000196815,McDowell Mountain Ranch Aquatic Center,15525 N. Thompson Peak Parkway,Scottsdale,AZ,Maricopa,85260,,33.629195,-111.863157
100000058652,Cactus Park,7202 East Cactus Road,Scottsdale,AZ,Maricopa,85260,,33.597200,-111.924580
100000176855,Well Site #42,26602 N. Pima Road,Scottsdale,AZ,Maricopa,85262,,33.728976,-111.893824
100000057966,Scottsdale CAP Plant,8660 East Union Hills,Scottsdale,AZ,Maricopa,85255-0176,,33.653889,-111.890556
100000028999,"Blue Water Pool Chemical Company, Inc.","7339 East Acoma Drive, Suite #1",Scottsdale,AZ,Maricopa,85260-3119,97119044,33.61775,-111.911194
100000035197,Verde Water Treatment Plant,7696 N. Red Mountain Road,Scottsdale,AZ,Maricopa,85264-9701,,33.592222,-111.529167
100000053531,"Western Farm Service, Somerton","5199 W County 16th Street, P.O. Box 500",Somerton,AZ,Yuma,85350,50365121,32.596389,-114.675556
100000195148,Springerville Generating Station,"12 miles north on US 180, 12 miles east on Apache County 4162",Springerville,AZ,Apache,85938,,34.318670,-109.169567
100000075811,"Apache Nitrogen Products, Inc.","1436 S. Apache Powder Road, 9 miles Southeast of Benson",St. David,AZ,Cochise,85630-6103,8399263,31.880500,-110.240500
100000003426,Coronado Generating Station,"32060 US Highway 191, 7 mi NE of St. Johns,AZ off Hwy 191",St. Johns,AZ,Apache,85936,9011487,34.578127,-109.270892
100000054255,Sun City West Water Reclamation Plant,11102 West Rose Garden,Sun City,AZ,Maricopa,85373,,33.67,-112.291667
100000253325,"Rinchem Company, LLC - CSC 45 Surprise",13255 West Sweetwater Ave,Surprise,AZ,Maricopa,85379,,33.600519,-112.345419
100000158964,Johnny G. Martinez Water Treatment Plant,255 East Marigold Lane,Tempe,AZ,Maricopa,85281,74466814,33.446685,-111.936828
100000070246,Nelco Arizona Inc.,1117 West Fairmont,Tempe,AZ,Maricopa,85282,102804705,33.395944,-111.9555
100000060079,United Dairymen of Arizona,2008 South Hardy Drive,Tempe,AZ,Maricopa,85282,7961949,33.405834,-111.952499
100000078033,South Tempe Water Treatment Plant,6600 South Price Road,Tempe,AZ,Maricopa,85284,74466814,33.360876,-111.894779
100000062148,Alameda Distribution Center,1115 W. Alameda Dr.,Tempe,AZ,Maricopa,85282-3307,167242775,33.399417,-111.956028
100000029462,"Pool Chlor of Arizona, Inc.",411 W. Gemini,Tempe,AZ,Maricopa,85283-1709,614670438,33.366539,-111.944458
100000189495,"Ferizona Thatcher, LLC",4257 US Highway 70,Thatcher,AZ,Graham,85552,21650189,32.849722,-109.772500
100000110408,Phoenix (Tolleson) Logistics Center,9704 West Roosevelt Street,Tolleson,AZ,Maricopa,85353,,33.458167,112.270528
100000174919,Arctic Glacier Inc.,600 S. 80th Ave.,Tolleson,AZ,Maricopa,85353,,33.443611,-112.2325
100000221057,"Atlas Logistics Retail Services LLC, Produce",500 S 99th Avenue,Tolleson,AZ,Maricopa,85353,,33.438522,-112.282017
100000001650,JBS Tolleson Beef Processing,651 S. 91st  Ave.,Tolleson,AZ,Maricopa,85353,148361249,33.441389,-112.252778
100000171404,Costco Wholesale - Tolleson,8400 W. Sherman St.,Tolleson,AZ,Maricopa,85353,,33.441390,-112.241783
100000066563,City of Tolleson,9501 West Pima St,Tolleson,AZ,Maricopa,85353,139443159,33.430042,-112.262695
100000193818,Tyson Forwarding Warehouse,501 South 107th Avenue,Tolleson,AZ,Maricopa,85353,5213962,33.438333,-112.288611
100000222724,"Sysco Arizona, Inc.",611 S. 80th Ave,Tolleson,AZ,Maricopa,85353,51099661,33.441953,-112.230981
100000177033,DBA-Tolleson Dairy,500 South 99th Avenue,Tolleson,AZ,Maricopa,85353,6999528,33.438401,-112.275925
100000035295,91st Avenue Wastewater Treatment Plant,5615 S. 91st Avenue,Tolleson,AZ,Maricopa,85353,,33.392177,-112.251589
